$GPGGA,050318.004,5954.110,N,01043.074,E,1,12,1.0,0.0,M,0.0,M,,*6D
$GPGSA,A,3,01,02,03,04,05,06,07,08,09,10,11,12,1.0,1.0,1.0*30
$GPRMC,050318.004,A,5954.110,N,01043.074,E,038.9,241.4,090920,000.0,W*7A
$GPGGA,050319.004,5954.102,N,01043.059,E,1,12,1.0,0.0,M,0.0,M,,*60
$GPGSA,A,3,01,02,03,04,05,06,07,08,09,10,11,12,1.0,1.0,1.0*30
$GPRMC,050319.004,A,5954.102,N,01043.059,E,038.9,241.4,090920,000.0,W*77
$GPGGA,050320.004,5954.094,N,01043.044,E,1,12,1.0,0.0,M,0.0,M,,*68
$GPGSA,A,3,01,02,03,04,05,06,07,08,09,10,11,12,1.0,1.0,1.0*30
$GPRMC,050320.004,A,5954.094,N,01043.044,E,038.9,241.4,090920,000.0,W*7F
$GPGGA,050321.004,5954.086,N,01043.030,E,1,12,1.0,0.0,M,0.0,M,,*69
$GPGSA,A,3,01,02,03,04,05,06,07,08,09,10,11,12,1.0,1.0,1.0*30
$GPRMC,050321.004,A,5954.086,N,01043.030,E,038.9,241.4,090920,000.0,W*7E
$GPGGA,050322.004,5954.078,N,01043.015,E,1,12,1.0,0.0,M,0.0,M,,*6C
$GPGSA,A,3,01,02,03,04,05,06,07,08,09,10,11,12,1.0,1.0,1.0*30
$GPRMC,050322.004,A,5954.078,N,01043.015,E,038.9,241.4,090920,000.0,W*7B
$GPGGA,050323.004,5954.070,N,01043.001,E,1,12,1.0,0.0,M,0.0,M,,*60
$GPGSA,A,3,01,02,03,04,05,06,07,08,09,10,11,12,1.0,1.0,1.0*30
$GPRMC,050323.004,A,5954.070,N,01043.001,E,038.9,241.4,090920,000.0,W*77
$GPGGA,050324.004,5954.062,N,01042.986,E,1,12,1.0,0.0,M,0.0,M,,*63
$GPGSA,A,3,01,02,03,04,05,06,07,08,09,10,11,12,1.0,1.0,1.0*30
$GPRMC,050324.004,A,5954.062,N,01042.986,E,038.9,241.4,090920,000.0,W*74
$GPGGA,050325.004,5954.054,N,01042.971,E,1,12,1.0,0.0,M,0.0,M,,*6F
$GPGSA,A,3,01,02,03,04,05,06,07,08,09,10,11,12,1.0,1.0,1.0*30
$GPRMC,050325.004,A,5954.054,N,01042.971,E,038.9,241.4,090920,000.0,W*78
$GPGGA,050326.004,5954.046,N,01042.957,E,1,12,1.0,0.0,M,0.0,M,,*6B
$GPGSA,A,3,01,02,03,04,05,06,07,08,09,10,11,12,1.0,1.0,1.0*30
$GPRMC,050326.004,A,5954.046,N,01042.957,E,038.9,241.4,090920,000.0,W*7C
$GPGGA,050327.004,5954.038,N,01042.942,E,1,12,1.0,0.0,M,0.0,M,,*67
$GPGSA,A,3,01,02,03,04,05,06,07,08,09,10,11,12,1.0,1.0,1.0*30
$GPRMC,050327.004,A,5954.038,N,01042.942,E,038.9,241.4,090920,000.0,W*70
$GPGGA,050328.004,5954.030,N,01042.928,E,1,12,1.0,0.0,M,0.0,M,,*6C
$GPGSA,A,3,01,02,03,04,05,06,07,08,09,10,11,12,1.0,1.0,1.0*30
$GPRMC,050328.004,A,5954.030,N,01042.928,E,038.9,241.4,090920,000.0,W*7B
$GPGGA,050329.004,5954.022,N,01042.913,E,1,12,1.0,0.0,M,0.0,M,,*66
$GPGSA,A,3,01,02,03,04,05,06,07,08,09,10,11,12,1.0,1.0,1.0*30
$GPRMC,050329.004,A,5954.022,N,01042.913,E,038.9,241.4,090920,000.0,W*71
$GPGGA,050330.004,5954.014,N,01042.898,E,1,12,1.0,0.0,M,0.0,M,,*69
$GPGSA,A,3,01,02,03,04,05,06,07,08,09,10,11,12,1.0,1.0,1.0*30
$GPRMC,050330.004,A,5954.014,N,01042.898,E,038.9,241.4,090920,000.0,W*7E
$GPGGA,050331.004,5954.007,N,01042.884,E,1,12,1.0,0.0,M,0.0,M,,*67
$GPGSA,A,3,01,02,03,04,05,06,07,08,09,10,11,12,1.0,1.0,1.0*30
$GPRMC,050331.004,A,5954.007,N,01042.884,E,038.9,241.4,090920,000.0,W*70
$GPGGA,050332.004,5953.999,N,01042.869,E,1,12,1.0,0.0,M,0.0,M,,*6E
$GPGSA,A,3,01,02,03,04,05,06,07,08,09,10,11,12,1.0,1.0,1.0*30
$GPRMC,050332.004,A,5953.999,N,01042.869,E,038.9,241.4,090920,000.0,W*79
$GPGGA,050333.004,5953.991,N,01042.855,E,1,12,1.0,0.0,M,0.0,M,,*68
$GPGSA,A,3,01,02,03,04,05,06,07,08,09,10,11,12,1.0,1.0,1.0*30
$GPRMC,050333.004,A,5953.991,N,01042.855,E,038.9,241.4,090920,000.0,W*7F
$GPGGA,050334.004,5953.983,N,01042.840,E,1,12,1.0,0.0,M,0.0,M,,*68
$GPGSA,A,3,01,02,03,04,05,06,07,08,09,10,11,12,1.0,1.0,1.0*30
$GPRMC,050334.004,A,5953.983,N,01042.840,E,038.9,241.4,090920,000.0,W*7F
$GPGGA,050335.004,5953.975,N,01042.825,E,1,12,1.0,0.0,M,0.0,M,,*63
$GPGSA,A,3,01,02,03,04,05,06,07,08,09,10,11,12,1.0,1.0,1.0*30
$GPRMC,050335.004,A,5953.975,N,01042.825,E,038.9,241.4,090920,000.0,W*74
$GPGGA,050336.004,5953.967,N,01042.811,E,1,12,1.0,0.0,M,0.0,M,,*64
$GPGSA,A,3,01,02,03,04,05,06,07,08,09,10,11,12,1.0,1.0,1.0*30
$GPRMC,050336.004,A,5953.967,N,01042.811,E,038.9,241.4,090920,000.0,W*73
$GPGGA,050337.004,5953.959,N,01042.796,E,1,12,1.0,0.0,M,0.0,M,,*68
$GPGSA,A,3,01,02,03,04,05,06,07,08,09,10,11,12,1.0,1.0,1.0*30
$GPRMC,050337.004,A,5953.959,N,01042.796,E,038.9,241.4,090920,000.0,W*7F
$GPGGA,050338.004,5953.951,N,01042.782,E,1,12,1.0,0.0,M,0.0,M,,*6A
$GPGSA,A,3,01,02,03,04,05,06,07,08,09,10,11,12,1.0,1.0,1.0*30
$GPRMC,050338.004,A,5953.951,N,01042.782,E,038.9,241.4,090920,000.0,W*7D
$GPGGA,050339.004,5953.943,N,01042.767,E,1,12,1.0,0.0,M,0.0,M,,*63
$GPGSA,A,3,01,02,03,04,05,06,07,08,09,10,11,12,1.0,1.0,1.0*30
$GPRMC,050339.004,A,5953.943,N,01042.767,E,038.9,241.4,090920,000.0,W*74
$GPGGA,050340.004,5953.935,N,01042.753,E,1,12,1.0,0.0,M,0.0,M,,*6B
$GPGSA,A,3,01,02,03,04,05,06,07,08,09,10,11,12,1.0,1.0,1.0*30
$GPRMC,050340.004,A,5953.935,N,01042.753,E,038.9,241.4,090920,000.0,W*7C
$GPGGA,050341.004,5953.927,N,01042.738,E,1,12,1.0,0.0,M,0.0,M,,*64
$GPGSA,A,3,01,02,03,04,05,06,07,08,09,10,11,12,1.0,1.0,1.0*30
$GPRMC,050341.004,A,5953.927,N,01042.738,E,038.9,241.4,090920,000.0,W*73
$GPGGA,050342.004,5953.919,N,01042.723,E,1,12,1.0,0.0,M,0.0,M,,*60
$GPGSA,A,3,01,02,03,04,05,06,07,08,09,10,11,12,1.0,1.0,1.0*30
$GPRMC,050342.004,A,5953.919,N,01042.723,E,038.9,241.4,090920,000.0,W*77
$GPGGA,050343.004,5953.911,N,01042.709,E,1,12,1.0,0.0,M,0.0,M,,*61
$GPGSA,A,3,01,02,03,04,05,06,07,08,09,10,11,12,1.0,1.0,1.0*30
$GPRMC,050343.004,A,5953.911,N,01042.709,E,038.9,241.4,090920,000.0,W*76
$GPGGA,050344.004,5953.903,N,01042.694,E,1,12,1.0,0.0,M,0.0,M,,*60
$GPGSA,A,3,01,02,03,04,05,06,07,08,09,10,11,12,1.0,1.0,1.0*30
$GPRMC,050344.004,A,5953.903,N,01042.694,E,038.9,241.4,090920,000.0,W*77
$GPGGA,050345.004,5953.896,N,01042.680,E,1,12,1.0,0.0,M,0.0,M,,*69
$GPGSA,A,3,01,02,03,04,05,06,07,08,09,10,11,12,1.0,1.0,1.0*30
$GPRMC,050345.004,A,5953.896,N,01042.680,E,038.9,241.4,090920,000.0,W*7E
$GPGGA,050346.004,5953.888,N,01042.665,E,1,12,1.0,0.0,M,0.0,M,,*6E
$GPGSA,A,3,01,02,03,04,05,06,07,08,09,10,11,12,1.0,1.0,1.0*30
$GPRMC,050346.004,A,5953.888,N,01042.665,E,038.9,241.4,090920,000.0,W*79
$GPGGA,050347.004,5953.880,N,01042.650,E,1,12,1.0,0.0,M,0.0,M,,*61
$GPGSA,A,3,01,02,03,04,05,06,07,08,09,10,11,12,1.0,1.0,1.0*30
$GPRMC,050347.004,A,5953.880,N,01042.650,E,038.9,241.4,090920,000.0,W*76
$GPGGA,050348.004,5953.872,N,01042.636,E,1,12,1.0,0.0,M,0.0,M,,*63
$GPGSA,A,3,01,02,03,04,05,06,07,08,09,10,11,12,1.0,1.0,1.0*30
$GPRMC,050348.004,A,5953.872,N,01042.636,E,038.9,241.4,090920,000.0,W*74
$GPGGA,050349.004,5953.864,N,01042.621,E,1,12,1.0,0.0,M,0.0,M,,*63
$GPGSA,A,3,01,02,03,04,05,06,07,08,09,10,11,12,1.0,1.0,1.0*30
$GPRMC,050349.004,A,5953.864,N,01042.621,E,038.9,241.4,090920,000.0,W*74
$GPGGA,050350.004,5953.856,N,01042.607,E,1,12,1.0,0.0,M,0.0,M,,*6E
$GPGSA,A,3,01,02,03,04,05,06,07,08,09,10,11,12,1.0,1.0,1.0*30
$GPRMC,050350.004,A,5953.856,N,01042.607,E,038.9,241.4,090920,000.0,W*79
$GPGGA,050351.004,5953.848,N,01042.592,E,1,12,1.0,0.0,M,0.0,M,,*6F
$GPGSA,A,3,01,02,03,04,05,06,07,08,09,10,11,12,1.0,1.0,1.0*30
$GPRMC,050351.004,A,5953.848,N,01042.592,E,038.9,241.4,090920,000.0,W*78
$GPGGA,050352.004,5953.840,N,01042.577,E,1,12,1.0,0.0,M,0.0,M,,*6F
$GPGSA,A,3,01,02,03,04,05,06,07,08,09,10,11,12,1.0,1.0,1.0*30
$GPRMC,050352.004,A,5953.840,N,01042.577,E,038.9,241.4,090920,000.0,W*78
$GPGGA,050353.004,5953.832,N,01042.563,E,1,12,1.0,0.0,M,0.0,M,,*6E
$GPGSA,A,3,01,02,03,04,05,06,07,08,09,10,11,12,1.0,1.0,1.0*30
$GPRMC,050353.004,A,5953.832,N,01042.563,E,038.9,241.4,090920,000.0,W*79
$GPGGA,050354.004,5953.824,N,01042.548,E,1,12,1.0,0.0,M,0.0,M,,*67
$GPGSA,A,3,01,02,03,04,05,06,07,08,09,10,11,12,1.0,1.0,1.0*30
$GPRMC,050354.004,A,5953.824,N,01042.548,E,038.9,241.4,090920,000.0,W*70
$GPGGA,050355.004,5953.816,N,01042.534,E,1,12,1.0,0.0,M,0.0,M,,*6C
$GPGSA,A,3,01,02,03,04,05,06,07,08,09,10,11,12,1.0,1.0,1.0*30
$GPRMC,050355.004,A,5953.816,N,01042.534,E,038.9,241.4,090920,000.0,W*7B
$GPGGA,050356.004,5953.808,N,01042.519,E,1,12,1.0,0.0,M,0.0,M,,*6F
$GPGSA,A,3,01,02,03,04,05,06,07,08,09,10,11,12,1.0,1.0,1.0*30
$GPRMC,050356.004,A,5953.808,N,01042.519,E,038.9,241.4,090920,000.0,W*78
$GPGGA,050357.004,5953.800,N,01042.504,E,1,12,1.0,0.0,M,0.0,M,,*6A
$GPGSA,A,3,01,02,03,04,05,06,07,08,09,10,11,12,1.0,1.0,1.0*30
$GPRMC,050357.004,A,5953.800,N,01042.504,E,038.9,241.4,090920,000.0,W*7D
$GPGGA,050358.004,5953.793,N,01042.490,E,1,12,1.0,0.0,M,0.0,M,,*6C
$GPGSA,A,3,01,02,03,04,05,06,07,08,09,10,11,12,1.0,1.0,1.0*30
$GPRMC,050358.004,A,5953.793,N,01042.490,E,038.9,241.4,090920,000.0,W*7B
$GPGGA,050359.004,5953.785,N,01042.475,E,1,12,1.0,0.0,M,0.0,M,,*61
$GPGSA,A,3,01,02,03,04,05,06,07,08,09,10,11,12,1.0,1.0,1.0*30
$GPRMC,050359.004,A,5953.785,N,01042.475,E,038.9,241.4,090920,000.0,W*76
$GPGGA,050400.004,5953.777,N,01042.461,E,1,12,1.0,0.0,M,0.0,M,,*62
$GPGSA,A,3,01,02,03,04,05,06,07,08,09,10,11,12,1.0,1.0,1.0*30
$GPRMC,050400.004,A,5953.777,N,01042.461,E,038.9,241.4,090920,000.0,W*75
$GPGGA,050401.004,5953.769,N,01042.446,E,1,12,1.0,0.0,M,0.0,M,,*69
$GPGSA,A,3,01,02,03,04,05,06,07,08,09,10,11,12,1.0,1.0,1.0*30
$GPRMC,050401.004,A,5953.769,N,01042.446,E,038.9,241.4,090920,000.0,W*7E
$GPGGA,050402.004,5953.761,N,01042.431,E,1,12,1.0,0.0,M,0.0,M,,*62
$GPGSA,A,3,01,02,03,04,05,06,07,08,09,10,11,12,1.0,1.0,1.0*30
$GPRMC,050402.004,A,5953.761,N,01042.431,E,038.9,241.4,090920,000.0,W*75
$GPGGA,050403.004,5953.753,N,01042.417,E,1,12,1.0,0.0,M,0.0,M,,*66
$GPGSA,A,3,01,02,03,04,05,06,07,08,09,10,11,12,1.0,1.0,1.0*30
$GPRMC,050403.004,A,5953.753,N,01042.417,E,038.9,241.4,090920,000.0,W*71
$GPGGA,050404.004,5953.745,N,01042.402,E,1,12,1.0,0.0,M,0.0,M,,*62
$GPGSA,A,3,01,02,03,04,05,06,07,08,09,10,11,12,1.0,1.0,1.0*30
$GPRMC,050404.004,A,5953.745,N,01042.402,E,038.9,241.4,090920,000.0,W*75
$GPGGA,050405.004,5953.737,N,01042.388,E,1,12,1.0,0.0,M,0.0,M,,*63
$GPGSA,A,3,01,02,03,04,05,06,07,08,09,10,11,12,1.0,1.0,1.0*30
$GPRMC,050405.004,A,5953.737,N,01042.388,E,038.9,241.4,090920,000.0,W*74
$GPGGA,050406.004,5953.729,N,01042.373,E,1,12,1.0,0.0,M,0.0,M,,*6B
$GPGSA,A,3,01,02,03,04,05,06,07,08,09,10,11,12,1.0,1.0,1.0*30
$GPRMC,050406.004,A,5953.729,N,01042.373,E,038.9,241.4,090920,000.0,W*7C
$GPGGA,050407.004,5953.721,N,01042.359,E,1,12,1.0,0.0,M,0.0,M,,*6A
$GPGSA,A,3,01,02,03,04,05,06,07,08,09,10,11,12,1.0,1.0,1.0*30
$GPRMC,050407.004,A,5953.721,N,01042.359,E,038.9,241.4,090920,000.0,W*7D
$GPGGA,050408.004,5953.713,N,01042.344,E,1,12,1.0,0.0,M,0.0,M,,*68
$GPGSA,A,3,01,02,03,04,05,06,07,08,09,10,11,12,1.0,1.0,1.0*30
$GPRMC,050408.004,A,5953.713,N,01042.344,E,038.9,241.4,090920,000.0,W*7F
$GPGGA,050409.004,5953.705,N,01042.329,E,1,12,1.0,0.0,M,0.0,M,,*65
$GPGSA,A,3,01,02,03,04,05,06,07,08,09,10,11,12,1.0,1.0,1.0*30
$GPRMC,050409.004,A,5953.705,N,01042.329,E,038.9,241.4,090920,000.0,W*72
$GPGGA,050410.004,5953.697,N,01042.315,E,1,12,1.0,0.0,M,0.0,M,,*68
$GPGSA,A,3,01,02,03,04,05,06,07,08,09,10,11,12,1.0,1.0,1.0*30
$GPRMC,050410.004,A,5953.697,N,01042.315,E,038.9,241.4,090920,000.0,W*7F
$GPGGA,050411.004,5953.690,N,01042.300,E,1,12,1.0,0.0,M,0.0,M,,*6A
$GPGSA,A,3,01,02,03,04,05,06,07,08,09,10,11,12,1.0,1.0,1.0*30
$GPRMC,050411.004,A,5953.690,N,01042.300,E,038.9,241.4,090920,000.0,W*7D
$GPGGA,050412.004,5953.682,N,01042.286,E,1,12,1.0,0.0,M,0.0,M,,*65
$GPGSA,A,3,01,02,03,04,05,06,07,08,09,10,11,12,1.0,1.0,1.0*30
$GPRMC,050412.004,A,5953.682,N,01042.286,E,038.9,241.4,090920,000.0,W*72
$GPGGA,050413.004,5953.674,N,01042.271,E,1,12,1.0,0.0,M,0.0,M,,*65
$GPGSA,A,3,01,02,03,04,05,06,07,08,09,10,11,12,1.0,1.0,1.0*30
$GPRMC,050413.004,A,5953.674,N,01042.271,E,038.9,241.4,090920,000.0,W*72
$GPGGA,050414.004,5953.666,N,01042.256,E,1,12,1.0,0.0,M,0.0,M,,*64
$GPGSA,A,3,01,02,03,04,05,06,07,08,09,10,11,12,1.0,1.0,1.0*30
$GPRMC,050414.004,A,5953.666,N,01042.256,E,038.9,241.4,090920,000.0,W*73
$GPGGA,050415.004,5953.658,N,01042.242,E,1,12,1.0,0.0,M,0.0,M,,*6D
$GPGSA,A,3,01,02,03,04,05,06,07,08,09,10,11,12,1.0,1.0,1.0*30
$GPRMC,050415.004,A,5953.658,N,01042.242,E,038.9,241.4,090920,000.0,W*7A
$GPGGA,050416.004,5953.650,N,01042.227,E,1,12,1.0,0.0,M,0.0,M,,*65
$GPGSA,A,3,01,02,03,04,05,06,07,08,09,10,11,12,1.0,1.0,1.0*30
$GPRMC,050416.004,A,5953.650,N,01042.227,E,038.9,241.4,090920,000.0,W*72
$GPGGA,050417.004,5953.642,N,01042.213,E,1,12,1.0,0.0,M,0.0,M,,*60
$GPGSA,A,3,01,02,03,04,05,06,07,08,09,10,11,12,1.0,1.0,1.0*30
$GPRMC,050417.004,A,5953.642,N,01042.213,E,038.9,241.4,090920,000.0,W*77
$GPGGA,050418.004,5953.634,N,01042.198,E,1,12,1.0,0.0,M,0.0,M,,*6E
$GPGSA,A,3,01,02,03,04,05,06,07,08,09,10,11,12,1.0,1.0,1.0*30
$GPRMC,050418.004,A,5953.634,N,01042.198,E,038.9,241.4,090920,000.0,W*79
$GPGGA,050419.004,5953.626,N,01042.183,E,1,12,1.0,0.0,M,0.0,M,,*66
$GPGSA,A,3,01,02,03,04,05,06,07,08,09,10,11,12,1.0,1.0,1.0*30
$GPRMC,050419.004,A,5953.626,N,01042.183,E,038.9,241.4,090920,000.0,W*71
$GPGGA,050420.004,5953.618,N,01042.169,E,1,12,1.0,0.0,M,0.0,M,,*65
$GPGSA,A,3,01,02,03,04,05,06,07,08,09,10,11,12,1.0,1.0,1.0*30
$GPRMC,050420.004,A,5953.618,N,01042.169,E,038.9,241.4,090920,000.0,W*72
$GPGGA,050421.004,5953.610,N,01042.154,E,1,12,1.0,0.0,M,0.0,M,,*62
$GPGSA,A,3,01,02,03,04,05,06,07,08,09,10,11,12,1.0,1.0,1.0*30
$GPRMC,050421.004,A,5953.610,N,01042.154,E,038.9,241.4,090920,000.0,W*75
$GPGGA,050422.004,5953.602,N,01042.140,E,1,12,1.0,0.0,M,0.0,M,,*67
$GPGSA,A,3,01,02,03,04,05,06,07,08,09,10,11,12,1.0,1.0,1.0*30
$GPRMC,050422.004,A,5953.602,N,01042.140,E,038.9,241.4,090920,000.0,W*70
$GPGGA,050423.004,5953.594,N,01042.125,E,1,12,1.0,0.0,M,0.0,M,,*69
$GPGSA,A,3,01,02,03,04,05,06,07,08,09,10,11,12,1.0,1.0,1.0*30
$GPRMC,050423.004,A,5953.594,N,01042.125,E,038.9,241.4,090920,000.0,W*7E
$GPGGA,050424.004,5953.587,N,01042.110,E,1,12,1.0,0.0,M,0.0,M,,*6A
$GPGSA,A,3,01,02,03,04,05,06,07,08,09,10,11,12,1.0,1.0,1.0*30
$GPRMC,050424.004,A,5953.587,N,01042.110,E,038.9,241.4,090920,000.0,W*7D
$GPGGA,050425.004,5953.579,N,01042.096,E,1,12,1.0,0.0,M,0.0,M,,*65
$GPGSA,A,3,01,02,03,04,05,06,07,08,09,10,11,12,1.0,1.0,1.0*30
$GPRMC,050425.004,A,5953.579,N,01042.096,E,038.9,241.4,090920,000.0,W*72
$GPGGA,050426.004,5953.571,N,01042.081,E,1,12,1.0,0.0,M,0.0,M,,*68
$GPGSA,A,3,01,02,03,04,05,06,07,08,09,10,11,12,1.0,1.0,1.0*30
$GPRMC,050426.004,A,5953.571,N,01042.081,E,038.9,241.4,090920,000.0,W*7F
$GPGGA,050427.004,5953.563,N,01042.067,E,1,12,1.0,0.0,M,0.0,M,,*62
$GPGSA,A,3,01,02,03,04,05,06,07,08,09,10,11,12,1.0,1.0,1.0*30
$GPRMC,050427.004,A,5953.563,N,01042.067,E,038.9,241.4,090920,000.0,W*75
$GPGGA,050428.004,5953.555,N,01042.052,E,1,12,1.0,0.0,M,0.0,M,,*6E
$GPGSA,A,3,01,02,03,04,05,06,07,08,09,10,11,12,1.0,1.0,1.0*30
$GPRMC,050428.004,A,5953.555,N,01042.052,E,038.9,241.4,090920,000.0,W*79
$GPGGA,050429.004,5953.547,N,01042.037,E,1,12,1.0,0.0,M,0.0,M,,*6F
$GPGSA,A,3,01,02,03,04,05,06,07,08,09,10,11,12,1.0,1.0,1.0*30
$GPRMC,050429.004,A,5953.547,N,01042.037,E,038.9,241.4,090920,000.0,W*78
$GPGGA,050430.004,5953.539,N,01042.023,E,1,12,1.0,0.0,M,0.0,M,,*6B
$GPGSA,A,3,01,02,03,04,05,06,07,08,09,10,11,12,1.0,1.0,1.0*30
$GPRMC,050430.004,A,5953.539,N,01042.023,E,038.9,241.4,090920,000.0,W*7C
$GPGGA,050431.004,5953.531,N,01042.008,E,1,12,1.0,0.0,M,0.0,M,,*6B
$GPGSA,A,3,01,02,03,04,05,06,07,08,09,10,11,12,1.0,1.0,1.0*30
$GPRMC,050431.004,A,5953.531,N,01042.008,E,038.9,241.4,090920,000.0,W*7C
$GPGGA,050432.004,5953.523,N,01041.994,E,1,12,1.0,0.0,M,0.0,M,,*64
$GPGSA,A,3,01,02,03,04,05,06,07,08,09,10,11,12,1.0,1.0,1.0*30
$GPRMC,050432.004,A,5953.523,N,01041.994,E,038.9,241.4,090920,000.0,W*73
$GPGGA,050433.004,5953.515,N,01041.979,E,1,12,1.0,0.0,M,0.0,M,,*63
$GPGSA,A,3,01,02,03,04,05,06,07,08,09,10,11,12,1.0,1.0,1.0*30
$GPRMC,050433.004,A,5953.515,N,01041.979,E,038.9,241.4,090920,000.0,W*74
$GPGGA,050434.004,5953.507,N,01041.965,E,1,12,1.0,0.0,M,0.0,M,,*6A
$GPGSA,A,3,01,02,03,04,05,06,07,08,09,10,11,12,1.0,1.0,1.0*30
$GPRMC,050434.004,A,5953.507,N,01041.965,E,038.9,241.4,090920,000.0,W*7D
$GPGGA,050435.004,5953.499,N,01041.950,E,1,12,1.0,0.0,M,0.0,M,,*6B
$GPGSA,A,3,01,02,03,04,05,06,07,08,09,10,11,12,1.0,1.0,1.0*30
$GPRMC,050435.004,A,5953.499,N,01041.950,E,038.9,241.4,090920,000.0,W*7C
$GPGGA,050436.004,5953.491,N,01041.935,E,1,12,1.0,0.0,M,0.0,M,,*63
$GPGSA,A,3,01,02,03,04,05,06,07,08,09,10,11,12,1.0,1.0,1.0*30
$GPRMC,050436.004,A,5953.491,N,01041.935,E,038.9,241.4,090920,000.0,W*74
$GPGGA,050437.004,5953.484,N,01041.921,E,1,12,1.0,0.0,M,0.0,M,,*63
$GPGSA,A,3,01,02,03,04,05,06,07,08,09,10,11,12,1.0,1.0,1.0*30
$GPRMC,050437.004,A,5953.484,N,01041.921,E,038.9,241.4,090920,000.0,W*74
$GPGGA,050438.004,5953.476,N,01041.906,E,1,12,1.0,0.0,M,0.0,M,,*64
$GPGSA,A,3,01,02,03,04,05,06,07,08,09,10,11,12,1.0,1.0,1.0*30
$GPRMC,050438.004,A,5953.476,N,01041.906,E,038.9,241.4,090920,000.0,W*73
$GPGGA,050439.004,5953.468,N,01041.892,E,1,12,1.0,0.0,M,0.0,M,,*66
$GPGSA,A,3,01,02,03,04,05,06,07,08,09,10,11,12,1.0,1.0,1.0*30
$GPRMC,050439.004,A,5953.468,N,01041.892,E,038.9,241.4,090920,000.0,W*71
$GPGGA,050440.004,5953.460,N,01041.877,E,1,12,1.0,0.0,M,0.0,M,,*6B
$GPGSA,A,3,01,02,03,04,05,06,07,08,09,10,11,12,1.0,1.0,1.0*30
$GPRMC,050440.004,A,5953.460,N,01041.877,E,038.9,241.4,090920,000.0,W*7C
$GPGGA,050441.004,5953.452,N,01041.862,E,1,12,1.0,0.0,M,0.0,M,,*6F
$GPGSA,A,3,01,02,03,04,05,06,07,08,09,10,11,12,1.0,1.0,1.0*30
$GPRMC,050441.004,A,5953.452,N,01041.862,E,038.9,241.4,090920,000.0,W*78
$GPGGA,050442.004,5953.444,N,01041.848,E,1,12,1.0,0.0,M,0.0,M,,*63
$GPGSA,A,3,01,02,03,04,05,06,07,08,09,10,11,12,1.0,1.0,1.0*30
$GPRMC,050442.004,A,5953.444,N,01041.848,E,038.9,241.4,090920,000.0,W*74
$GPGGA,050443.004,5953.436,N,01041.833,E,1,12,1.0,0.0,M,0.0,M,,*6B
$GPGSA,A,3,01,02,03,04,05,06,07,08,09,10,11,12,1.0,1.0,1.0*30
$GPRMC,050443.004,A,5953.436,N,01041.833,E,038.9,241.4,090920,000.0,W*7C
$GPGGA,050444.004,5953.428,N,01041.819,E,1,12,1.0,0.0,M,0.0,M,,*6B
$GPGSA,A,3,01,02,03,04,05,06,07,08,09,10,11,12,1.0,1.0,1.0*30
$GPRMC,050444.004,A,5953.428,N,01041.819,E,038.9,241.4,090920,000.0,W*7C
$GPGGA,050445.004,5953.420,N,01041.804,E,1,12,1.0,0.0,M,0.0,M,,*6E
$GPGSA,A,3,01,02,03,04,05,06,07,08,09,10,11,12,1.0,1.0,1.0*30
$GPRMC,050445.004,A,5953.420,N,01041.804,E,038.9,241.4,090920,000.0,W*79
$GPGGA,050446.004,5953.412,N,01041.789,E,1,12,1.0,0.0,M,0.0,M,,*66
$GPGSA,A,3,01,02,03,04,05,06,07,08,09,10,11,12,1.0,1.0,1.0*30
$GPRMC,050446.004,A,5953.412,N,01041.789,E,038.9,241.4,090920,000.0,W*71
$GPGGA,050447.004,5953.404,N,01041.775,E,1,12,1.0,0.0,M,0.0,M,,*63
$GPGSA,A,3,01,02,03,04,05,06,07,08,09,10,11,12,1.0,1.0,1.0*30
$GPRMC,050447.004,A,5953.404,N,01041.775,E,038.9,241.4,090920,000.0,W*74
$GPGGA,050448.004,5953.396,N,01041.760,E,1,12,1.0,0.0,M,0.0,M,,*64
$GPGSA,A,3,01,02,03,04,05,06,07,08,09,10,11,12,1.0,1.0,1.0*30
$GPRMC,050448.004,A,5953.396,N,01041.760,E,038.9,241.4,090920,000.0,W*73
$GPGGA,050449.004,5953.388,N,01041.746,E,1,12,1.0,0.0,M,0.0,M,,*6E
$GPGSA,A,3,01,02,03,04,05,06,07,08,09,10,11,12,1.0,1.0,1.0*30
$GPRMC,050449.004,A,5953.388,N,01041.746,E,038.9,241.4,090920,000.0,W*79
$GPGGA,050450.004,5953.380,N,01041.731,E,1,12,1.0,0.0,M,0.0,M,,*6E
$GPGSA,A,3,01,02,03,04,05,06,07,08,09,10,11,12,1.0,1.0,1.0*30
$GPRMC,050450.004,A,5953.380,N,01041.731,E,038.9,241.4,090920,000.0,W*79
$GPGGA,050451.004,5953.373,N,01041.716,E,1,12,1.0,0.0,M,0.0,M,,*66
$GPGSA,A,3,01,02,03,04,05,06,07,08,09,10,11,12,1.0,1.0,1.0*30
$GPRMC,050451.004,A,5953.373,N,01041.716,E,038.9,241.4,090920,000.0,W*71
$GPGGA,050452.004,5953.365,N,01041.702,E,1,12,1.0,0.0,M,0.0,M,,*67
$GPGSA,A,3,01,02,03,04,05,06,07,08,09,10,11,12,1.0,1.0,1.0*30
$GPRMC,050452.004,A,5953.365,N,01041.702,E,038.9,241.4,090920,000.0,W*70
$GPGGA,050453.004,5953.357,N,01041.687,E,1,12,1.0,0.0,M,0.0,M,,*6B
$GPGSA,A,3,01,02,03,04,05,06,07,08,09,10,11,12,1.0,1.0,1.0*30
$GPRMC,050453.004,A,5953.357,N,01041.687,E,038.9,241.4,090920,000.0,W*7C
$GPGGA,050454.004,5953.349,N,01041.673,E,1,12,1.0,0.0,M,0.0,M,,*68
$GPGSA,A,3,01,02,03,04,05,06,07,08,09,10,11,12,1.0,1.0,1.0*30
$GPRMC,050454.004,A,5953.349,N,01041.673,E,038.9,241.4,090920,000.0,W*7F
$GPGGA,050455.004,5953.341,N,01041.658,E,1,12,1.0,0.0,M,0.0,M,,*68
$GPGSA,A,3,01,02,03,04,05,06,07,08,09,10,11,12,1.0,1.0,1.0*30
$GPRMC,050455.004,A,5953.341,N,01041.658,E,038.9,241.4,090920,000.0,W*7F
$GPGGA,050456.004,5953.333,N,01041.643,E,1,12,1.0,0.0,M,0.0,M,,*64
$GPGSA,A,3,01,02,03,04,05,06,07,08,09,10,11,12,1.0,1.0,1.0*30
$GPRMC,050456.004,A,5953.333,N,01041.643,E,038.9,241.4,090920,000.0,W*73
$GPGGA,050457.004,5953.325,N,01041.629,E,1,12,1.0,0.0,M,0.0,M,,*6E
$GPGSA,A,3,01,02,03,04,05,06,07,08,09,10,11,12,1.0,1.0,1.0*30
$GPRMC,050457.004,A,5953.325,N,01041.629,E,038.9,241.4,090920,000.0,W*79
$GPGGA,050458.004,5953.317,N,01041.614,E,1,12,1.0,0.0,M,0.0,M,,*6E
$GPGSA,A,3,01,02,03,04,05,06,07,08,09,10,11,12,1.0,1.0,1.0*30
$GPRMC,050458.004,A,5953.317,N,01041.614,E,038.9,241.4,090920,000.0,W*79
$GPGGA,050459.004,5953.309,N,01041.600,E,1,12,1.0,0.0,M,0.0,M,,*65
$GPGSA,A,3,01,02,03,04,05,06,07,08,09,10,11,12,1.0,1.0,1.0*30
$GPRMC,050459.004,A,5953.309,N,01041.600,E,038.9,241.4,090920,000.0,W*72
$GPGGA,050500.004,5953.301,N,01041.585,E,1,12,1.0,0.0,M,0.0,M,,*6E
$GPGSA,A,3,01,02,03,04,05,06,07,08,09,10,11,12,1.0,1.0,1.0*30
$GPRMC,050500.004,A,5953.301,N,01041.585,E,038.9,241.4,090920,000.0,W*79
$GPGGA,050501.004,5953.293,N,01041.570,E,1,12,1.0,0.0,M,0.0,M,,*6F
$GPGSA,A,3,01,02,03,04,05,06,07,08,09,10,11,12,1.0,1.0,1.0*30
$GPRMC,050501.004,A,5953.293,N,01041.570,E,038.9,241.4,090920,000.0,W*78
$GPGGA,050502.004,5953.285,N,01041.556,E,1,12,1.0,0.0,M,0.0,M,,*6F
$GPGSA,A,3,01,02,03,04,05,06,07,08,09,10,11,12,1.0,1.0,1.0*30
$GPRMC,050502.004,A,5953.285,N,01041.556,E,038.9,241.4,090920,000.0,W*78
$GPGGA,050503.004,5953.277,N,01041.541,E,1,12,1.0,0.0,M,0.0,M,,*65
$GPGSA,A,3,01,02,03,04,05,06,07,08,09,10,11,12,1.0,1.0,1.0*30
$GPRMC,050503.004,A,5953.277,N,01041.541,E,038.9,241.4,090920,000.0,W*72
$GPGGA,050504.004,5953.270,N,01041.527,E,1,12,1.0,0.0,M,0.0,M,,*65
$GPGSA,A,3,01,02,03,04,05,06,07,08,09,10,11,12,1.0,1.0,1.0*30
$GPRMC,050504.004,A,5953.270,N,01041.527,E,038.9,241.4,090920,000.0,W*72
$GPGGA,050505.004,5953.262,N,01041.512,E,1,12,1.0,0.0,M,0.0,M,,*61
$GPGSA,A,3,01,02,03,04,05,06,07,08,09,10,11,12,1.0,1.0,1.0*30
$GPRMC,050505.004,A,5953.262,N,01041.512,E,038.9,241.4,090920,000.0,W*76
$GPGGA,050506.004,5953.254,N,01041.498,E,1,12,1.0,0.0,M,0.0,M,,*64
$GPGSA,A,3,01,02,03,04,05,06,07,08,09,10,11,12,1.0,1.0,1.0*30
$GPRMC,050506.004,A,5953.254,N,01041.498,E,038.9,241.4,090920,000.0,W*73
$GPGGA,050507.004,5953.246,N,01041.483,E,1,12,1.0,0.0,M,0.0,M,,*6C
$GPGSA,A,3,01,02,03,04,05,06,07,08,09,10,11,12,1.0,1.0,1.0*30
$GPRMC,050507.004,A,5953.246,N,01041.483,E,038.9,241.4,090920,000.0,W*7B
$GPGGA,050508.004,5953.238,N,01041.468,E,1,12,1.0,0.0,M,0.0,M,,*6F
$GPGSA,A,3,01,02,03,04,05,06,07,08,09,10,11,12,1.0,1.0,1.0*30
$GPRMC,050508.004,A,5953.238,N,01041.468,E,038.9,241.4,090920,000.0,W*78
$GPGGA,050509.004,5953.230,N,01041.454,E,1,12,1.0,0.0,M,0.0,M,,*69
$GPGSA,A,3,01,02,03,04,05,06,07,08,09,10,11,12,1.0,1.0,1.0*30
$GPRMC,050509.004,A,5953.230,N,01041.454,E,038.9,241.4,090920,000.0,W*7E
$GPGGA,050510.004,5953.222,N,01041.439,E,1,12,1.0,0.0,M,0.0,M,,*69
$GPGSA,A,3,01,02,03,04,05,06,07,08,09,10,11,12,1.0,1.0,1.0*30
$GPRMC,050510.004,A,5953.222,N,01041.439,E,038.9,241.4,090920,000.0,W*7E
$GPGGA,050511.004,5953.214,N,01041.425,E,1,12,1.0,0.0,M,0.0,M,,*60
$GPGSA,A,3,01,02,03,04,05,06,07,08,09,10,11,12,1.0,1.0,1.0*30
$GPRMC,050511.004,A,5953.214,N,01041.425,E,038.9,241.4,090920,000.0,W*77
$GPGGA,050512.004,5953.206,N,01041.410,E,1,12,1.0,0.0,M,0.0,M,,*66
$GPGSA,A,3,01,02,03,04,05,06,07,08,09,10,11,12,1.0,1.0,1.0*30
$GPRMC,050512.004,A,5953.206,N,01041.410,E,038.9,241.4,090920,000.0,W*71
$GPGGA,050513.004,5953.198,N,01041.395,E,1,12,1.0,0.0,M,0.0,M,,*69
$GPGSA,A,3,01,02,03,04,05,06,07,08,09,10,11,12,1.0,1.0,1.0*30
$GPRMC,050513.004,A,5953.198,N,01041.395,E,038.9,241.4,090920,000.0,W*7E
$GPGGA,050514.004,5953.190,N,01041.381,E,1,12,1.0,0.0,M,0.0,M,,*63
$GPGSA,A,3,01,02,03,04,05,06,07,08,09,10,11,12,1.0,1.0,1.0*30
$GPRMC,050514.004,A,5953.190,N,01041.381,E,038.9,241.4,090920,000.0,W*74
$GPGGA,050515.004,5953.182,N,01041.366,E,1,12,1.0,0.0,M,0.0,M,,*68
$GPGSA,A,3,01,02,03,04,05,06,07,08,09,10,11,12,1.0,1.0,1.0*30
$GPRMC,050515.004,A,5953.182,N,01041.366,E,038.9,241.4,090920,000.0,W*7F
$GPGGA,050516.004,5953.174,N,01041.352,E,1,12,1.0,0.0,M,0.0,M,,*65
$GPGSA,A,3,01,02,03,04,05,06,07,08,09,10,11,12,1.0,1.0,1.0*30
$GPRMC,050516.004,A,5953.174,N,01041.352,E,038.9,241.4,090920,000.0,W*72
$GPGGA,050517.004,5953.167,N,01041.337,E,1,12,1.0,0.0,M,0.0,M,,*65
$GPGSA,A,3,01,02,03,04,05,06,07,08,09,10,11,12,1.0,1.0,1.0*30
$GPRMC,050517.004,A,5953.167,N,01041.337,E,038.9,241.4,090920,000.0,W*72
$GPGGA,050518.004,5953.159,N,01041.322,E,1,12,1.0,0.0,M,0.0,M,,*63
$GPGSA,A,3,01,02,03,04,05,06,07,08,09,10,11,12,1.0,1.0,1.0*30
$GPRMC,050518.004,A,5953.159,N,01041.322,E,038.9,241.4,090920,000.0,W*74
$GPGGA,050519.004,5953.151,N,01041.308,E,1,12,1.0,0.0,M,0.0,M,,*62
$GPGSA,A,3,01,02,03,04,05,06,07,08,09,10,11,12,1.0,1.0,1.0*30
$GPRMC,050519.004,A,5953.151,N,01041.308,E,038.9,241.4,090920,000.0,W*75
$GPGGA,050520.004,5953.143,N,01041.293,E,1,12,1.0,0.0,M,0.0,M,,*68
$GPGSA,A,3,01,02,03,04,05,06,07,08,09,10,11,12,1.0,1.0,1.0*30
$GPRMC,050520.004,A,5953.143,N,01041.293,E,038.9,241.4,090920,000.0,W*7F
$GPGGA,050521.004,5953.135,N,01041.279,E,1,12,1.0,0.0,M,0.0,M,,*6C
$GPGSA,A,3,01,02,03,04,05,06,07,08,09,10,11,12,1.0,1.0,1.0*30
$GPRMC,050521.004,A,5953.135,N,01041.279,E,038.9,241.4,090920,000.0,W*7B
$GPGGA,050522.004,5953.127,N,01041.264,E,1,12,1.0,0.0,M,0.0,M,,*60
$GPGSA,A,3,01,02,03,04,05,06,07,08,09,10,11,12,1.0,1.0,1.0*30
$GPRMC,050522.004,A,5953.127,N,01041.264,E,038.9,241.4,090920,000.0,W*77
$GPGGA,050523.004,5953.119,N,01041.249,E,1,12,1.0,0.0,M,0.0,M,,*63
$GPGSA,A,3,01,02,03,04,05,06,07,08,09,10,11,12,1.0,1.0,1.0*30
$GPRMC,050523.004,A,5953.119,N,01041.249,E,038.9,241.4,090920,000.0,W*74
$GPGGA,050524.004,5953.111,N,01041.235,E,1,12,1.0,0.0,M,0.0,M,,*67
$GPGSA,A,3,01,02,03,04,05,06,07,08,09,10,11,12,1.0,1.0,1.0*30
$GPRMC,050524.004,A,5953.111,N,01041.235,E,038.9,241.4,090920,000.0,W*70
$GPGGA,050525.004,5953.103,N,01041.220,E,1,12,1.0,0.0,M,0.0,M,,*61
$GPGSA,A,3,01,02,03,04,05,06,07,08,09,10,11,12,1.0,1.0,1.0*30
$GPRMC,050525.004,A,5953.103,N,01041.220,E,038.9,241.4,090920,000.0,W*76
$GPGGA,050526.004,5953.095,N,01041.206,E,1,12,1.0,0.0,M,0.0,M,,*68
$GPGSA,A,3,01,02,03,04,05,06,07,08,09,10,11,12,1.0,1.0,1.0*30
$GPRMC,050526.004,A,5953.095,N,01041.206,E,038.9,241.4,090920,000.0,W*7F
$GPGGA,050527.004,5953.087,N,01041.191,E,1,12,1.0,0.0,M,0.0,M,,*67
$GPGSA,A,3,01,02,03,04,05,06,07,08,09,10,11,12,1.0,1.0,1.0*30
$GPRMC,050527.004,A,5953.087,N,01041.191,E,038.9,241.4,090920,000.0,W*70
$GPGGA,050528.004,5953.079,N,01041.176,E,1,12,1.0,0.0,M,0.0,M,,*60
$GPGSA,A,3,01,02,03,04,05,06,07,08,09,10,11,12,1.0,1.0,1.0*30
$GPRMC,050528.004,A,5953.079,N,01041.176,E,038.9,241.4,090920,000.0,W*77
$GPGGA,050529.004,5953.071,N,01041.162,E,1,12,1.0,0.0,M,0.0,M,,*6C
$GPGSA,A,3,01,02,03,04,05,06,07,08,09,10,11,12,1.0,1.0,1.0*30
$GPRMC,050529.004,A,5953.071,N,01041.162,E,038.9,241.4,090920,000.0,W*7B
$GPGGA,050530.004,5953.064,N,01041.147,E,1,12,1.0,0.0,M,0.0,M,,*67
$GPGSA,A,3,01,02,03,04,05,06,07,08,09,10,11,12,1.0,1.0,1.0*30
$GPRMC,050530.004,A,5953.064,N,01041.147,E,038.9,241.4,090920,000.0,W*70
$GPGGA,050531.004,5953.056,N,01041.133,E,1,12,1.0,0.0,M,0.0,M,,*64
$GPGSA,A,3,01,02,03,04,05,06,07,08,09,10,11,12,1.0,1.0,1.0*30
$GPRMC,050531.004,A,5953.056,N,01041.133,E,038.9,241.4,090920,000.0,W*73
$GPGGA,050532.004,5953.048,N,01041.118,E,1,12,1.0,0.0,M,0.0,M,,*61
$GPGSA,A,3,01,02,03,04,05,06,07,08,09,10,11,12,1.0,1.0,1.0*30
$GPRMC,050532.004,A,5953.048,N,01041.118,E,038.9,241.4,090920,000.0,W*76
$GPGGA,050533.004,5953.040,N,01041.104,E,1,12,1.0,0.0,M,0.0,M,,*65
$GPGSA,A,3,01,02,03,04,05,06,07,08,09,10,11,12,1.0,1.0,1.0*30
$GPRMC,050533.004,A,5953.040,N,01041.104,E,038.9,241.4,090920,000.0,W*72
$GPGGA,050534.004,5953.032,N,01041.089,E,1,12,1.0,0.0,M,0.0,M,,*63
$GPGSA,A,3,01,02,03,04,05,06,07,08,09,10,11,12,1.0,1.0,1.0*30
$GPRMC,050534.004,A,5953.032,N,01041.089,E,038.9,241.4,090920,000.0,W*74
$GPGGA,050535.004,5953.024,N,01041.074,E,1,12,1.0,0.0,M,0.0,M,,*67
$GPGSA,A,3,01,02,03,04,05,06,07,08,09,10,11,12,1.0,1.0,1.0*30
$GPRMC,050535.004,A,5953.024,N,01041.074,E,038.9,241.4,090920,000.0,W*70
$GPGGA,050536.004,5953.016,N,01041.060,E,1,12,1.0,0.0,M,0.0,M,,*60
$GPGSA,A,3,01,02,03,04,05,06,07,08,09,10,11,12,1.0,1.0,1.0*30
$GPRMC,050536.004,A,5953.016,N,01041.060,E,038.9,241.4,090920,000.0,W*77
$GPGGA,050537.004,5953.008,N,01041.045,E,1,12,1.0,0.0,M,0.0,M,,*69
$GPGSA,A,3,01,02,03,04,05,06,07,08,09,10,11,12,1.0,1.0,1.0*30
$GPRMC,050537.004,A,5953.008,N,01041.045,E,038.9,241.4,090920,000.0,W*7E
$GPGGA,050538.004,5953.000,N,01041.031,E,1,12,1.0,0.0,M,0.0,M,,*6D
$GPGSA,A,3,01,02,03,04,05,06,07,08,09,10,11,12,1.0,1.0,1.0*30
$GPRMC,050538.004,A,5953.000,N,01041.031,E,038.9,241.4,090920,000.0,W*7A
$GPGGA,050539.004,5952.992,N,01041.016,E,1,12,1.0,0.0,M,0.0,M,,*6A
$GPGSA,A,3,01,02,03,04,05,06,07,08,09,10,11,12,1.0,1.0,1.0*30
$GPRMC,050539.004,A,5952.992,N,01041.016,E,038.9,241.4,090920,000.0,W*7D
$GPGGA,050540.004,5952.984,N,01041.001,E,1,12,1.0,0.0,M,0.0,M,,*65
$GPGSA,A,3,01,02,03,04,05,06,07,08,09,10,11,12,1.0,1.0,1.0*30
$GPRMC,050540.004,A,5952.984,N,01041.001,E,038.9,241.4,090920,000.0,W*72
$GPGGA,050541.004,5952.976,N,01040.987,E,1,12,1.0,0.0,M,0.0,M,,*6F
$GPGSA,A,3,01,02,03,04,05,06,07,08,09,10,11,12,1.0,1.0,1.0*30
$GPRMC,050541.004,A,5952.976,N,01040.987,E,038.9,241.4,090920,000.0,W*78
$GPGGA,050542.004,5952.968,N,01040.972,E,1,12,1.0,0.0,M,0.0,M,,*69
$GPGSA,A,3,01,02,03,04,05,06,07,08,09,10,11,12,1.0,1.0,1.0*30
$GPRMC,050542.004,A,5952.968,N,01040.972,E,038.9,241.4,090920,000.0,W*7E
$GPGGA,050543.004,5952.961,N,01040.958,E,1,12,1.0,0.0,M,0.0,M,,*69
$GPGSA,A,3,01,02,03,04,05,06,07,08,09,10,11,12,1.0,1.0,1.0*30
$GPRMC,050543.004,A,5952.961,N,01040.958,E,038.9,241.4,090920,000.0,W*7E
$GPGGA,050544.004,5952.953,N,01040.943,E,1,12,1.0,0.0,M,0.0,M,,*65
$GPGSA,A,3,01,02,03,04,05,06,07,08,09,10,11,12,1.0,1.0,1.0*30
$GPRMC,050544.004,A,5952.953,N,01040.943,E,038.9,241.4,090920,000.0,W*72
$GPGGA,050545.004,5952.945,N,01040.928,E,1,12,1.0,0.0,M,0.0,M,,*6E
$GPGSA,A,3,01,02,03,04,05,06,07,08,09,10,11,12,1.0,1.0,1.0*30
$GPRMC,050545.004,A,5952.945,N,01040.928,E,038.9,241.4,090920,000.0,W*79
$GPGGA,050546.004,5952.937,N,01040.914,E,1,12,1.0,0.0,M,0.0,M,,*67
$GPGSA,A,3,01,02,03,04,05,06,07,08,09,10,11,12,1.0,1.0,1.0*30
$GPRMC,050546.004,A,5952.937,N,01040.914,E,038.9,241.4,090920,000.0,W*70
$GPGGA,050547.004,5952.929,N,01040.899,E,1,12,1.0,0.0,M,0.0,M,,*6D
$GPGSA,A,3,01,02,03,04,05,06,07,08,09,10,11,12,1.0,1.0,1.0*30
$GPRMC,050547.004,A,5952.929,N,01040.899,E,038.9,241.4,090920,000.0,W*7A
$GPGGA,050548.004,5952.921,N,01040.885,E,1,12,1.0,0.0,M,0.0,M,,*67
$GPGSA,A,3,01,02,03,04,05,06,07,08,09,10,11,12,1.0,1.0,1.0*30
$GPRMC,050548.004,A,5952.921,N,01040.885,E,038.9,241.4,090920,000.0,W*70
$GPGGA,050549.004,5952.913,N,01040.870,E,1,12,1.0,0.0,M,0.0,M,,*6D
$GPGSA,A,3,01,02,03,04,05,06,07,08,09,10,11,12,1.0,1.0,1.0*30
$GPRMC,050549.004,A,5952.913,N,01040.870,E,038.9,241.4,090920,000.0,W*7A
$GPGGA,050550.004,5952.905,N,01040.855,E,1,12,1.0,0.0,M,0.0,M,,*65
$GPGSA,A,3,01,02,03,04,05,06,07,08,09,10,11,12,1.0,1.0,1.0*30
$GPRMC,050550.004,A,5952.905,N,01040.855,E,038.9,241.4,090920,000.0,W*72
$GPGGA,050551.004,5952.897,N,01040.841,E,1,12,1.0,0.0,M,0.0,M,,*6B
$GPGSA,A,3,01,02,03,04,05,06,07,08,09,10,11,12,1.0,1.0,1.0*30
$GPRMC,050551.004,A,5952.897,N,01040.841,E,038.9,241.4,090920,000.0,W*7C
$GPGGA,050552.004,5952.889,N,01040.826,E,1,12,1.0,0.0,M,0.0,M,,*66
$GPGSA,A,3,01,02,03,04,05,06,07,08,09,10,11,12,1.0,1.0,1.0*30
$GPRMC,050552.004,A,5952.889,N,01040.826,E,038.9,241.4,090920,000.0,W*71
$GPGGA,050553.004,5952.881,N,01040.812,E,1,12,1.0,0.0,M,0.0,M,,*68
$GPGSA,A,3,01,02,03,04,05,06,07,08,09,10,11,12,1.0,1.0,1.0*30
$GPRMC,050553.004,A,5952.881,N,01040.812,E,038.9,241.4,090920,000.0,W*7F
$GPGGA,050554.004,5952.873,N,01040.797,E,1,12,1.0,0.0,M,0.0,M,,*60
$GPGSA,A,3,01,02,03,04,05,06,07,08,09,10,11,12,1.0,1.0,1.0*30
$GPRMC,050554.004,A,5952.873,N,01040.797,E,038.9,241.4,090920,000.0,W*77
$GPGGA,050555.004,5952.865,N,01040.782,E,1,12,1.0,0.0,M,0.0,M,,*62
$GPGSA,A,3,01,02,03,04,05,06,07,08,09,10,11,12,1.0,1.0,1.0*30
$GPRMC,050555.004,A,5952.865,N,01040.782,E,038.9,241.4,090920,000.0,W*75
$GPGGA,050556.004,5952.857,N,01040.768,E,1,12,1.0,0.0,M,0.0,M,,*64
$GPGSA,A,3,01,02,03,04,05,06,07,08,09,10,11,12,1.0,1.0,1.0*30
$GPRMC,050556.004,A,5952.857,N,01040.768,E,038.9,241.4,090920,000.0,W*73
$GPGGA,050557.004,5952.850,N,01040.753,E,1,12,1.0,0.0,M,0.0,M,,*6A
$GPGSA,A,3,01,02,03,04,05,06,07,08,09,10,11,12,1.0,1.0,1.0*30
$GPRMC,050557.004,A,5952.850,N,01040.753,E,038.9,241.4,090920,000.0,W*7D
$GPGGA,050558.004,5952.842,N,01040.739,E,1,12,1.0,0.0,M,0.0,M,,*6A
$GPGSA,A,3,01,02,03,04,05,06,07,08,09,10,11,12,1.0,1.0,1.0*30
$GPRMC,050558.004,A,5952.842,N,01040.739,E,038.9,241.4,090920,000.0,W*7D
$GPGGA,050559.004,5952.834,N,01040.724,E,1,12,1.0,0.0,M,0.0,M,,*66
$GPGSA,A,3,01,02,03,04,05,06,07,08,09,10,11,12,1.0,1.0,1.0*30
$GPRMC,050559.004,A,5952.834,N,01040.724,E,038.9,241.4,090920,000.0,W*71
$GPGGA,050600.004,5952.826,N,01040.710,E,1,12,1.0,0.0,M,0.0,M,,*6D
$GPGSA,A,3,01,02,03,04,05,06,07,08,09,10,11,12,1.0,1.0,1.0*30
$GPRMC,050600.004,A,5952.826,N,01040.710,E,038.9,241.4,090920,000.0,W*7A
$GPGGA,050601.004,5952.818,N,01040.695,E,1,12,1.0,0.0,M,0.0,M,,*6D
$GPGSA,A,3,01,02,03,04,05,06,07,08,09,10,11,12,1.0,1.0,1.0*30
$GPRMC,050601.004,A,5952.818,N,01040.695,E,038.9,241.4,090920,000.0,W*7A
$GPGGA,050602.004,5952.810,N,01040.680,E,1,12,1.0,0.0,M,0.0,M,,*62
$GPGSA,A,3,01,02,03,04,05,06,07,08,09,10,11,12,1.0,1.0,1.0*30
$GPRMC,050602.004,A,5952.810,N,01040.680,E,038.9,241.4,090920,000.0,W*75
$GPGGA,050603.004,5952.802,N,01040.666,E,1,12,1.0,0.0,M,0.0,M,,*68
$GPGSA,A,3,01,02,03,04,05,06,07,08,09,10,11,12,1.0,1.0,1.0*30
$GPRMC,050603.004,A,5952.802,N,01040.666,E,038.9,241.4,090920,000.0,W*7F
$GPGGA,050604.004,5952.794,N,01040.651,E,1,12,1.0,0.0,M,0.0,M,,*6B
$GPGSA,A,3,01,02,03,04,05,06,07,08,09,10,11,12,1.0,1.0,1.0*30
$GPRMC,050604.004,A,5952.794,N,01040.651,E,038.9,241.4,090920,000.0,W*7C
$GPGGA,050605.004,5952.786,N,01040.637,E,1,12,1.0,0.0,M,0.0,M,,*69
$GPGSA,A,3,01,02,03,04,05,06,07,08,09,10,11,12,1.0,1.0,1.0*30
$GPRMC,050605.004,A,5952.786,N,01040.637,E,038.9,241.4,090920,000.0,W*7E
$GPGGA,050606.004,5952.778,N,01040.622,E,1,12,1.0,0.0,M,0.0,M,,*6F
$GPGSA,A,3,01,02,03,04,05,06,07,08,09,10,11,12,1.0,1.0,1.0*30
$GPRMC,050606.004,A,5952.778,N,01040.622,E,038.9,241.4,090920,000.0,W*78
$GPGGA,050607.004,5952.770,N,01040.607,E,1,12,1.0,0.0,M,0.0,M,,*61
$GPGSA,A,3,01,02,03,04,05,06,07,08,09,10,11,12,1.0,1.0,1.0*30
$GPRMC,050607.004,A,5952.770,N,01040.607,E,038.9,241.4,090920,000.0,W*76
$GPGGA,050608.004,5952.762,N,01040.593,E,1,12,1.0,0.0,M,0.0,M,,*63
$GPGSA,A,3,01,02,03,04,05,06,07,08,09,10,11,12,1.0,1.0,1.0*30
$GPRMC,050608.004,A,5952.762,N,01040.593,E,038.9,241.4,090920,000.0,W*74
$GPGGA,050609.004,5952.754,N,01040.578,E,1,12,1.0,0.0,M,0.0,M,,*62
$GPGSA,A,3,01,02,03,04,05,06,07,08,09,10,11,12,1.0,1.0,1.0*30
$GPRMC,050609.004,A,5952.754,N,01040.578,E,038.9,241.4,090920,000.0,W*75
$GPGGA,050610.004,5952.747,N,01040.564,E,1,12,1.0,0.0,M,0.0,M,,*65
$GPGSA,A,3,01,02,03,04,05,06,07,08,09,10,11,12,1.0,1.0,1.0*30
$GPRMC,050610.004,A,5952.747,N,01040.564,E,038.9,241.4,090920,000.0,W*72
$GPGGA,050611.004,5952.739,N,01040.549,E,1,12,1.0,0.0,M,0.0,M,,*62
$GPGSA,A,3,01,02,03,04,05,06,07,08,09,10,11,12,1.0,1.0,1.0*30
$GPRMC,050611.004,A,5952.739,N,01040.549,E,038.9,241.4,090920,000.0,W*75
$GPGGA,050612.004,5952.731,N,01040.534,E,1,12,1.0,0.0,M,0.0,M,,*63
$GPGSA,A,3,01,02,03,04,05,06,07,08,09,10,11,12,1.0,1.0,1.0*30
$GPRMC,050612.004,A,5952.731,N,01040.534,E,038.9,241.4,090920,000.0,W*74
$GPGGA,050613.004,5952.723,N,01040.520,E,1,12,1.0,0.0,M,0.0,M,,*64
$GPGSA,A,3,01,02,03,04,05,06,07,08,09,10,11,12,1.0,1.0,1.0*30
$GPRMC,050613.004,A,5952.723,N,01040.520,E,038.9,241.4,090920,000.0,W*73
$GPGGA,050614.004,5952.715,N,01040.505,E,1,12,1.0,0.0,M,0.0,M,,*61
$GPGSA,A,3,01,02,03,04,05,06,07,08,09,10,11,12,1.0,1.0,1.0*30
$GPRMC,050614.004,A,5952.715,N,01040.505,E,038.9,241.4,090920,000.0,W*76
$GPGGA,050615.004,5952.707,N,01040.491,E,1,12,1.0,0.0,M,0.0,M,,*6F
$GPGSA,A,3,01,02,03,04,05,06,07,08,09,10,11,12,1.0,1.0,1.0*30
$GPRMC,050615.004,A,5952.707,N,01040.491,E,038.9,241.4,090920,000.0,W*78
$GPGGA,050616.004,5952.699,N,01040.476,E,1,12,1.0,0.0,M,0.0,M,,*63
$GPGSA,A,3,01,02,03,04,05,06,07,08,09,10,11,12,1.0,1.0,1.0*30
$GPRMC,050616.004,A,5952.699,N,01040.476,E,038.9,241.4,090920,000.0,W*74
$GPGGA,050617.004,5952.691,N,01040.461,E,1,12,1.0,0.0,M,0.0,M,,*6C
$GPGSA,A,3,01,02,03,04,05,06,07,08,09,10,11,12,1.0,1.0,1.0*30
$GPRMC,050617.004,A,5952.691,N,01040.461,E,038.9,241.4,090920,000.0,W*7B
$GPGGA,050618.004,5952.683,N,01040.447,E,1,12,1.0,0.0,M,0.0,M,,*64
$GPGSA,A,3,01,02,03,04,05,06,07,08,09,10,11,12,1.0,1.0,1.0*30
$GPRMC,050618.004,A,5952.683,N,01040.447,E,038.9,241.4,090920,000.0,W*73
$GPGGA,050619.004,5952.675,N,01040.432,E,1,12,1.0,0.0,M,0.0,M,,*6E
$GPGSA,A,3,01,02,03,04,05,06,07,08,09,10,11,12,1.0,1.0,1.0*30
$GPRMC,050619.004,A,5952.675,N,01040.432,E,038.9,241.4,090920,000.0,W*79
$GPGGA,050620.004,5952.667,N,01040.418,E,1,12,1.0,0.0,M,0.0,M,,*6F
$GPGSA,A,3,01,02,03,04,05,06,07,08,09,10,11,12,1.0,1.0,1.0*30
$GPRMC,050620.004,A,5952.667,N,01040.418,E,038.9,241.4,090920,000.0,W*78
$GPGGA,050621.004,5952.659,N,01040.403,E,1,12,1.0,0.0,M,0.0,M,,*69
$GPGSA,A,3,01,02,03,04,05,06,07,08,09,10,11,12,1.0,1.0,1.0*30
$GPRMC,050621.004,A,5952.659,N,01040.403,E,038.9,241.4,090920,000.0,W*7E
$GPGGA,050622.004,5952.651,N,01040.388,E,1,12,1.0,0.0,M,0.0,M,,*66
$GPGSA,A,3,01,02,03,04,05,06,07,08,09,10,11,12,1.0,1.0,1.0*30
$GPRMC,050622.004,A,5952.651,N,01040.388,E,038.9,241.4,090920,000.0,W*71
$GPGGA,050623.004,5952.644,N,01040.374,E,1,12,1.0,0.0,M,0.0,M,,*60
$GPGSA,A,3,01,02,03,04,05,06,07,08,09,10,11,12,1.0,1.0,1.0*30
$GPRMC,050623.004,A,5952.644,N,01040.374,E,038.9,241.4,090920,000.0,W*77
$GPGGA,050624.004,5952.636,N,01040.359,E,1,12,1.0,0.0,M,0.0,M,,*6D
$GPGSA,A,3,01,02,03,04,05,06,07,08,09,10,11,12,1.0,1.0,1.0*30
$GPRMC,050624.004,A,5952.636,N,01040.359,E,038.9,241.4,090920,000.0,W*7A
$GPGGA,050625.004,5952.628,N,01040.345,E,1,12,1.0,0.0,M,0.0,M,,*6E
$GPGSA,A,3,01,02,03,04,05,06,07,08,09,10,11,12,1.0,1.0,1.0*30
$GPRMC,050625.004,A,5952.628,N,01040.345,E,038.9,241.4,090920,000.0,W*79
$GPGGA,050626.004,5952.620,N,01040.330,E,1,12,1.0,0.0,M,0.0,M,,*67
$GPGSA,A,3,01,02,03,04,05,06,07,08,09,10,11,12,1.0,1.0,1.0*30
$GPRMC,050626.004,A,5952.620,N,01040.330,E,038.9,241.4,090920,000.0,W*70
$GPGGA,050627.004,5952.612,N,01040.316,E,1,12,1.0,0.0,M,0.0,M,,*63
$GPGSA,A,3,01,02,03,04,05,06,07,08,09,10,11,12,1.0,1.0,1.0*30
$GPRMC,050627.004,A,5952.612,N,01040.316,E,038.9,241.4,090920,000.0,W*74
$GPGGA,050628.004,5952.604,N,01040.301,E,1,12,1.0,0.0,M,0.0,M,,*6D
$GPGSA,A,3,01,02,03,04,05,06,07,08,09,10,11,12,1.0,1.0,1.0*30
$GPRMC,050628.004,A,5952.604,N,01040.301,E,038.9,241.4,090920,000.0,W*7A
$GPGGA,050629.004,5952.596,N,01040.286,E,1,12,1.0,0.0,M,0.0,M,,*6A
$GPGSA,A,3,01,02,03,04,05,06,07,08,09,10,11,12,1.0,1.0,1.0*30
$GPRMC,050629.004,A,5952.596,N,01040.286,E,038.9,241.4,090920,000.0,W*7D
$GPGGA,050630.004,5952.588,N,01040.272,E,1,12,1.0,0.0,M,0.0,M,,*66
$GPGSA,A,3,01,02,03,04,05,06,07,08,09,10,11,12,1.0,1.0,1.0*30
$GPRMC,050630.004,A,5952.588,N,01040.272,E,038.9,241.4,090920,000.0,W*71
$GPGGA,050631.004,5952.580,N,01040.257,E,1,12,1.0,0.0,M,0.0,M,,*68
$GPGSA,A,3,01,02,03,04,05,06,07,08,09,10,11,12,1.0,1.0,1.0*30
$GPRMC,050631.004,A,5952.580,N,01040.257,E,038.9,241.4,090920,000.0,W*7F
$GPGGA,050632.004,5952.572,N,01040.243,E,1,12,1.0,0.0,M,0.0,M,,*63
$GPGSA,A,3,01,02,03,04,05,06,07,08,09,10,11,12,1.0,1.0,1.0*30
$GPRMC,050632.004,A,5952.572,N,01040.243,E,038.9,241.4,090920,000.0,W*74
$GPGGA,050633.004,5952.564,N,01040.228,E,1,12,1.0,0.0,M,0.0,M,,*68
$GPGSA,A,3,01,02,03,04,05,06,07,08,09,10,11,12,1.0,1.0,1.0*30
$GPRMC,050633.004,A,5952.564,N,01040.228,E,038.9,241.4,090920,000.0,W*7F
$GPGGA,050634.004,5952.556,N,01040.213,E,1,12,1.0,0.0,M,0.0,M,,*66
$GPGSA,A,3,01,02,03,04,05,06,07,08,09,10,11,12,1.0,1.0,1.0*30
$GPRMC,050634.004,A,5952.556,N,01040.213,E,038.9,241.4,090920,000.0,W*71
$GPGGA,050635.004,5952.548,N,01040.199,E,1,12,1.0,0.0,M,0.0,M,,*69
$GPGSA,A,3,01,02,03,04,05,06,07,08,09,10,11,12,1.0,1.0,1.0*30
$GPRMC,050635.004,A,5952.548,N,01040.199,E,038.9,241.4,090920,000.0,W*7E
$GPGGA,050636.004,5952.541,N,01040.184,E,1,12,1.0,0.0,M,0.0,M,,*6F
$GPGSA,A,3,01,02,03,04,05,06,07,08,09,10,11,12,1.0,1.0,1.0*30
$GPRMC,050636.004,A,5952.541,N,01040.184,E,038.9,241.4,090920,000.0,W*78
$GPGGA,050637.004,5952.533,N,01040.170,E,1,12,1.0,0.0,M,0.0,M,,*60
$GPGSA,A,3,01,02,03,04,05,06,07,08,09,10,11,12,1.0,1.0,1.0*30
$GPRMC,050637.004,A,5952.533,N,01040.170,E,038.9,241.4,090920,000.0,W*77
$GPGGA,050638.004,5952.525,N,01040.155,E,1,12,1.0,0.0,M,0.0,M,,*6F
$GPGSA,A,3,01,02,03,04,05,06,07,08,09,10,11,12,1.0,1.0,1.0*30
$GPRMC,050638.004,A,5952.525,N,01040.155,E,038.9,241.4,090920,000.0,W*78
$GPGGA,050639.004,5952.517,N,01040.140,E,1,12,1.0,0.0,M,0.0,M,,*6B
$GPGSA,A,3,01,02,03,04,05,06,07,08,09,10,11,12,1.0,1.0,1.0*30
$GPRMC,050639.004,A,5952.517,N,01040.140,E,038.9,241.4,090920,000.0,W*7C
$GPGGA,050640.004,5952.509,N,01040.126,E,1,12,1.0,0.0,M,0.0,M,,*6A
$GPGSA,A,3,01,02,03,04,05,06,07,08,09,10,11,12,1.0,1.0,1.0*30
$GPRMC,050640.004,A,5952.509,N,01040.126,E,038.9,241.4,090920,000.0,W*7D
$GPGGA,050641.004,5952.501,N,01040.111,E,1,12,1.0,0.0,M,0.0,M,,*67
$GPGSA,A,3,01,02,03,04,05,06,07,08,09,10,11,12,1.0,1.0,1.0*30
$GPRMC,050641.004,A,5952.501,N,01040.111,E,038.9,241.4,090920,000.0,W*70
$GPGGA,050642.004,5952.493,N,01040.097,E,1,12,1.0,0.0,M,0.0,M,,*61
$GPGSA,A,3,01,02,03,04,05,06,07,08,09,10,11,12,1.0,1.0,1.0*30
$GPRMC,050642.004,A,5952.493,N,01040.097,E,038.9,241.4,090920,000.0,W*76
$GPGGA,050643.004,5952.485,N,01040.082,E,1,12,1.0,0.0,M,0.0,M,,*63
$GPGSA,A,3,01,02,03,04,05,06,07,08,09,10,11,12,1.0,1.0,1.0*30
$GPRMC,050643.004,A,5952.485,N,01040.082,E,038.9,241.4,090920,000.0,W*74
$GPGGA,050644.004,5952.477,N,01040.067,E,1,12,1.0,0.0,M,0.0,M,,*62
$GPGSA,A,3,01,02,03,04,05,06,07,08,09,10,11,12,1.0,1.0,1.0*30
$GPRMC,050644.004,A,5952.477,N,01040.067,E,038.9,241.4,090920,000.0,W*75
$GPGGA,050645.004,5952.469,N,01040.053,E,1,12,1.0,0.0,M,0.0,M,,*6B
$GPGSA,A,3,01,02,03,04,05,06,07,08,09,10,11,12,1.0,1.0,1.0*30
$GPRMC,050645.004,A,5952.469,N,01040.053,E,038.9,241.4,090920,000.0,W*7C
$GPGGA,050646.004,5952.461,N,01040.038,E,1,12,1.0,0.0,M,0.0,M,,*6D
$GPGSA,A,3,01,02,03,04,05,06,07,08,09,10,11,12,1.0,1.0,1.0*30
$GPRMC,050646.004,A,5952.461,N,01040.038,E,038.9,241.4,090920,000.0,W*7A
$GPGGA,050647.004,5952.453,N,01040.024,E,1,12,1.0,0.0,M,0.0,M,,*60
$GPGSA,A,3,01,02,03,04,05,06,07,08,09,10,11,12,1.0,1.0,1.0*30
$GPRMC,050647.004,A,5952.453,N,01040.024,E,038.9,241.4,090920,000.0,W*77
$GPGGA,050648.004,5952.445,N,01040.009,E,1,12,1.0,0.0,M,0.0,M,,*67
$GPGSA,A,3,01,02,03,04,05,06,07,08,09,10,11,12,1.0,1.0,1.0*30
$GPRMC,050648.004,A,5952.445,N,01040.009,E,038.9,241.4,090920,000.0,W*70
$GPGGA,050649.004,5952.438,N,01039.994,E,1,12,1.0,0.0,M,0.0,M,,*6F
$GPGSA,A,3,01,02,03,04,05,06,07,08,09,10,11,12,1.0,1.0,1.0*30
$GPRMC,050649.004,A,5952.438,N,01039.994,E,038.9,241.4,090920,000.0,W*78
$GPGGA,050650.004,5952.430,N,01039.980,E,1,12,1.0,0.0,M,0.0,M,,*6A
$GPGSA,A,3,01,02,03,04,05,06,07,08,09,10,11,12,1.0,1.0,1.0*30
$GPRMC,050650.004,A,5952.430,N,01039.980,E,038.9,241.4,090920,000.0,W*7D
$GPGGA,050651.004,5952.422,N,01039.965,E,1,12,1.0,0.0,M,0.0,M,,*63
$GPGSA,A,3,01,02,03,04,05,06,07,08,09,10,11,12,1.0,1.0,1.0*30
$GPRMC,050651.004,A,5952.422,N,01039.965,E,038.9,241.4,090920,000.0,W*74
$GPGGA,050652.004,5952.414,N,01039.951,E,1,12,1.0,0.0,M,0.0,M,,*62
$GPGSA,A,3,01,02,03,04,05,06,07,08,09,10,11,12,1.0,1.0,1.0*30
$GPRMC,050652.004,A,5952.414,N,01039.951,E,038.9,241.4,090920,000.0,W*75
$GPGGA,050653.004,5952.406,N,01039.936,E,1,12,1.0,0.0,M,0.0,M,,*61
$GPGSA,A,3,01,02,03,04,05,06,07,08,09,10,11,12,1.0,1.0,1.0*30
$GPRMC,050653.004,A,5952.406,N,01039.936,E,038.9,241.4,090920,000.0,W*76
$GPGGA,050654.004,5952.398,N,01039.922,E,1,12,1.0,0.0,M,0.0,M,,*63
$GPGSA,A,3,01,02,03,04,05,06,07,08,09,10,11,12,1.0,1.0,1.0*30
$GPRMC,050654.004,A,5952.398,N,01039.922,E,038.9,241.4,090920,000.0,W*74
$GPGGA,050655.004,5952.390,N,01039.907,E,1,12,1.0,0.0,M,0.0,M,,*6D
$GPGSA,A,3,01,02,03,04,05,06,07,08,09,10,11,12,1.0,1.0,1.0*30
$GPRMC,050655.004,A,5952.390,N,01039.907,E,038.9,241.4,090920,000.0,W*7A
$GPGGA,050656.004,5952.382,N,01039.892,E,1,12,1.0,0.0,M,0.0,M,,*60
$GPGSA,A,3,01,02,03,04,05,06,07,08,09,10,11,12,1.0,1.0,1.0*30
$GPRMC,050656.004,A,5952.382,N,01039.892,E,038.9,241.4,090920,000.0,W*77
$GPGGA,050657.004,5952.374,N,01039.878,E,1,12,1.0,0.0,M,0.0,M,,*6C
$GPGSA,A,3,01,02,03,04,05,06,07,08,09,10,11,12,1.0,1.0,1.0*30
$GPRMC,050657.004,A,5952.374,N,01039.878,E,038.9,241.4,090920,000.0,W*7B
$GPGGA,050658.004,5952.366,N,01039.863,E,1,12,1.0,0.0,M,0.0,M,,*6A
$GPGSA,A,3,01,02,03,04,05,06,07,08,09,10,11,12,1.0,1.0,1.0*30
$GPRMC,050658.004,A,5952.366,N,01039.863,E,038.9,241.4,090920,000.0,W*7D
$GPGGA,050659.004,5952.358,N,01039.849,E,1,12,1.0,0.0,M,0.0,M,,*6E
$GPGSA,A,3,01,02,03,04,05,06,07,08,09,10,11,12,1.0,1.0,1.0*30
$GPRMC,050659.004,A,5952.358,N,01039.849,E,038.9,241.4,090920,000.0,W*79
$GPGGA,050700.004,5952.350,N,01039.834,E,1,12,1.0,0.0,M,0.0,M,,*61
$GPGSA,A,3,01,02,03,04,05,06,07,08,09,10,11,12,1.0,1.0,1.0*30
$GPRMC,050700.004,A,5952.350,N,01039.834,E,038.9,241.4,090920,000.0,W*76
$GPGGA,050701.004,5952.342,N,01039.819,E,1,12,1.0,0.0,M,0.0,M,,*6C
$GPGSA,A,3,01,02,03,04,05,06,07,08,09,10,11,12,1.0,1.0,1.0*30
$GPRMC,050701.004,A,5952.342,N,01039.819,E,038.9,241.4,090920,000.0,W*7B
$GPGGA,050702.004,5952.335,N,01039.805,E,1,12,1.0,0.0,M,0.0,M,,*62
$GPGSA,A,3,01,02,03,04,05,06,07,08,09,10,11,12,1.0,1.0,1.0*30
$GPRMC,050702.004,A,5952.335,N,01039.805,E,038.9,241.4,090920,000.0,W*75
$GPGGA,050703.004,5952.327,N,01039.790,E,1,12,1.0,0.0,M,0.0,M,,*63
$GPGSA,A,3,01,02,03,04,05,06,07,08,09,10,11,12,1.0,1.0,1.0*30
$GPRMC,050703.004,A,5952.327,N,01039.790,E,038.9,241.4,090920,000.0,W*74
$GPGGA,050704.004,5952.319,N,01039.776,E,1,12,1.0,0.0,M,0.0,M,,*61
$GPGSA,A,3,01,02,03,04,05,06,07,08,09,10,11,12,1.0,1.0,1.0*30
$GPRMC,050704.004,A,5952.319,N,01039.776,E,038.9,241.4,090920,000.0,W*76
$GPGGA,050705.004,5952.311,N,01039.761,E,1,12,1.0,0.0,M,0.0,M,,*6E
$GPGSA,A,3,01,02,03,04,05,06,07,08,09,10,11,12,1.0,1.0,1.0*30
$GPRMC,050705.004,A,5952.311,N,01039.761,E,038.9,241.4,090920,000.0,W*79
$GPGGA,050706.004,5952.303,N,01039.746,E,1,12,1.0,0.0,M,0.0,M,,*6B
$GPGSA,A,3,01,02,03,04,05,06,07,08,09,10,11,12,1.0,1.0,1.0*30
$GPRMC,050706.004,A,5952.303,N,01039.746,E,038.9,241.4,090920,000.0,W*7C
$GPGGA,050707.004,5952.295,N,01039.732,E,1,12,1.0,0.0,M,0.0,M,,*67
$GPGSA,A,3,01,02,03,04,05,06,07,08,09,10,11,12,1.0,1.0,1.0*30
$GPRMC,050707.004,A,5952.295,N,01039.732,E,038.9,241.4,090920,000.0,W*70
$GPGGA,050708.004,5952.287,N,01039.717,E,1,12,1.0,0.0,M,0.0,M,,*6C
$GPGSA,A,3,01,02,03,04,05,06,07,08,09,10,11,12,1.0,1.0,1.0*30
$GPRMC,050708.004,A,5952.287,N,01039.717,E,038.9,241.4,090920,000.0,W*7B
$GPGGA,050709.004,5952.279,N,01039.703,E,1,12,1.0,0.0,M,0.0,M,,*69
$GPGSA,A,3,01,02,03,04,05,06,07,08,09,10,11,12,1.0,1.0,1.0*30
$GPRMC,050709.004,A,5952.279,N,01039.703,E,038.9,241.4,090920,000.0,W*7E
$GPGGA,050710.004,5952.271,N,01039.688,E,1,12,1.0,0.0,M,0.0,M,,*6B
$GPGSA,A,3,01,02,03,04,05,06,07,08,09,10,11,12,1.0,1.0,1.0*30
$GPRMC,050710.004,A,5952.271,N,01039.688,E,038.9,241.4,090920,000.0,W*7C
$GPGGA,050711.004,5952.263,N,01039.673,E,1,12,1.0,0.0,M,0.0,M,,*6D
$GPGSA,A,3,01,02,03,04,05,06,07,08,09,10,11,12,1.0,1.0,1.0*30
$GPRMC,050711.004,A,5952.263,N,01039.673,E,038.9,241.4,090920,000.0,W*7A
$GPGGA,050712.004,5952.255,N,01039.659,E,1,12,1.0,0.0,M,0.0,M,,*63
$GPGSA,A,3,01,02,03,04,05,06,07,08,09,10,11,12,1.0,1.0,1.0*30
$GPRMC,050712.004,A,5952.255,N,01039.659,E,038.9,241.4,090920,000.0,W*74
$GPGGA,050713.004,5952.247,N,01039.644,E,1,12,1.0,0.0,M,0.0,M,,*6D
$GPGSA,A,3,01,02,03,04,05,06,07,08,09,10,11,12,1.0,1.0,1.0*30
$GPRMC,050713.004,A,5952.247,N,01039.644,E,038.9,241.4,090920,000.0,W*7A
$GPGGA,050714.004,5952.239,N,01039.630,E,1,12,1.0,0.0,M,0.0,M,,*60
$GPGSA,A,3,01,02,03,04,05,06,07,08,09,10,11,12,1.0,1.0,1.0*30
$GPRMC,050714.004,A,5952.239,N,01039.630,E,038.9,241.4,090920,000.0,W*77
$GPGGA,050715.004,5952.231,N,01039.615,E,1,12,1.0,0.0,M,0.0,M,,*6E
$GPGSA,A,3,01,02,03,04,05,06,07,08,09,10,11,12,1.0,1.0,1.0*30
$GPRMC,050715.004,A,5952.231,N,01039.615,E,038.9,241.4,090920,000.0,W*79
$GPGGA,050716.004,5952.224,N,01039.600,E,1,12,1.0,0.0,M,0.0,M,,*6D
$GPGSA,A,3,01,02,03,04,05,06,07,08,09,10,11,12,1.0,1.0,1.0*30
$GPRMC,050716.004,A,5952.224,N,01039.600,E,038.9,241.4,090920,000.0,W*7A
$GPGGA,050717.004,5952.216,N,01039.586,E,1,12,1.0,0.0,M,0.0,M,,*60
$GPGSA,A,3,01,02,03,04,05,06,07,08,09,10,11,12,1.0,1.0,1.0*30
$GPRMC,050717.004,A,5952.216,N,01039.586,E,038.9,241.4,090920,000.0,W*77
$GPGGA,050718.004,5952.208,N,01039.571,E,1,12,1.0,0.0,M,0.0,M,,*68
$GPGSA,A,3,01,02,03,04,05,06,07,08,09,10,11,12,1.0,1.0,1.0*30
$GPRMC,050718.004,A,5952.208,N,01039.571,E,038.9,241.4,090920,000.0,W*7F
$GPGGA,050719.004,5952.200,N,01039.557,E,1,12,1.0,0.0,M,0.0,M,,*65
$GPGSA,A,3,01,02,03,04,05,06,07,08,09,10,11,12,1.0,1.0,1.0*30
$GPRMC,050719.004,A,5952.200,N,01039.557,E,038.9,241.4,090920,000.0,W*72
$GPGGA,050720.004,5952.192,N,01039.542,E,1,12,1.0,0.0,M,0.0,M,,*63
$GPGSA,A,3,01,02,03,04,05,06,07,08,09,10,11,12,1.0,1.0,1.0*30
$GPRMC,050720.004,A,5952.192,N,01039.542,E,038.9,241.4,090920,000.0,W*74
$GPGGA,050721.004,5952.184,N,01039.527,E,1,12,1.0,0.0,M,0.0,M,,*66
$GPGSA,A,3,01,02,03,04,05,06,07,08,09,10,11,12,1.0,1.0,1.0*30
$GPRMC,050721.004,A,5952.184,N,01039.527,E,038.9,241.4,090920,000.0,W*71
$GPGGA,050722.004,5952.176,N,01039.513,E,1,12,1.0,0.0,M,0.0,M,,*6F
$GPGSA,A,3,01,02,03,04,05,06,07,08,09,10,11,12,1.0,1.0,1.0*30
$GPRMC,050722.004,A,5952.176,N,01039.513,E,038.9,241.4,090920,000.0,W*78
$GPGGA,050723.004,5952.168,N,01039.498,E,1,12,1.0,0.0,M,0.0,M,,*63
$GPGSA,A,3,01,02,03,04,05,06,07,08,09,10,11,12,1.0,1.0,1.0*30
$GPRMC,050723.004,A,5952.168,N,01039.498,E,038.9,241.4,090920,000.0,W*74
$GPGGA,050724.004,5952.160,N,01039.484,E,1,12,1.0,0.0,M,0.0,M,,*61
$GPGSA,A,3,01,02,03,04,05,06,07,08,09,10,11,12,1.0,1.0,1.0*30
$GPRMC,050724.004,A,5952.160,N,01039.484,E,038.9,241.4,090920,000.0,W*76
$GPGGA,050725.004,5952.152,N,01039.469,E,1,12,1.0,0.0,M,0.0,M,,*62
$GPGSA,A,3,01,02,03,04,05,06,07,08,09,10,11,12,1.0,1.0,1.0*30
$GPRMC,050725.004,A,5952.152,N,01039.469,E,038.9,241.4,090920,000.0,W*75
$GPGGA,050726.004,5952.144,N,01039.455,E,1,12,1.0,0.0,M,0.0,M,,*69
$GPGSA,A,3,01,02,03,04,05,06,07,08,09,10,11,12,1.0,1.0,1.0*30
$GPRMC,050726.004,A,5952.144,N,01039.455,E,038.9,241.4,090920,000.0,W*7E
$GPGGA,050727.004,5952.136,N,01039.440,E,1,12,1.0,0.0,M,0.0,M,,*69
$GPGSA,A,3,01,02,03,04,05,06,07,08,09,10,11,12,1.0,1.0,1.0*30
$GPRMC,050727.004,A,5952.136,N,01039.440,E,038.9,241.4,090920,000.0,W*7E
$GPGGA,050728.004,5952.128,N,01039.425,E,1,12,1.0,0.0,M,0.0,M,,*6A
$GPGSA,A,3,01,02,03,04,05,06,07,08,09,10,11,12,1.0,1.0,1.0*30
$GPRMC,050728.004,A,5952.128,N,01039.425,E,038.9,241.4,090920,000.0,W*7D
$GPGGA,050729.004,5952.121,N,01039.411,E,1,12,1.0,0.0,M,0.0,M,,*65
$GPGSA,A,3,01,02,03,04,05,06,07,08,09,10,11,12,1.0,1.0,1.0*30
$GPRMC,050729.004,A,5952.121,N,01039.411,E,038.9,241.4,090920,000.0,W*72
$GPGGA,050730.004,5952.113,N,01039.396,E,1,12,1.0,0.0,M,0.0,M,,*64
$GPGSA,A,3,01,02,03,04,05,06,07,08,09,10,11,12,1.0,1.0,1.0*30
$GPRMC,050730.004,A,5952.113,N,01039.396,E,038.9,241.4,090920,000.0,W*73
$GPGGA,050731.004,5952.105,N,01039.382,E,1,12,1.0,0.0,M,0.0,M,,*67
$GPGSA,A,3,01,02,03,04,05,06,07,08,09,10,11,12,1.0,1.0,1.0*30
$GPRMC,050731.004,A,5952.105,N,01039.382,E,038.9,241.4,090920,000.0,W*70
$GPGGA,050732.004,5952.097,N,01039.367,E,1,12,1.0,0.0,M,0.0,M,,*65
$GPGSA,A,3,01,02,03,04,05,06,07,08,09,10,11,12,1.0,1.0,1.0*30
$GPRMC,050732.004,A,5952.097,N,01039.367,E,038.9,241.4,090920,000.0,W*72
$GPGGA,050733.004,5952.089,N,01039.352,E,1,12,1.0,0.0,M,0.0,M,,*6D
$GPGSA,A,3,01,02,03,04,05,06,07,08,09,10,11,12,1.0,1.0,1.0*30
$GPRMC,050733.004,A,5952.089,N,01039.352,E,038.9,241.4,090920,000.0,W*7A
$GPGGA,050734.004,5952.081,N,01039.338,E,1,12,1.0,0.0,M,0.0,M,,*6E
$GPGSA,A,3,01,02,03,04,05,06,07,08,09,10,11,12,1.0,1.0,1.0*30
$GPRMC,050734.004,A,5952.081,N,01039.338,E,038.9,241.4,090920,000.0,W*79
$GPGGA,050735.004,5952.073,N,01039.323,E,1,12,1.0,0.0,M,0.0,M,,*68
$GPGSA,A,3,01,02,03,04,05,06,07,08,09,10,11,12,1.0,1.0,1.0*30
$GPRMC,050735.004,A,5952.073,N,01039.323,E,038.9,241.4,090920,000.0,W*7F
$GPGGA,050736.004,5952.065,N,01039.309,E,1,12,1.0,0.0,M,0.0,M,,*64
$GPGSA,A,3,01,02,03,04,05,06,07,08,09,10,11,12,1.0,1.0,1.0*30
$GPRMC,050736.004,A,5952.065,N,01039.309,E,038.9,241.4,090920,000.0,W*73
$GPGGA,050737.004,5952.057,N,01039.294,E,1,12,1.0,0.0,M,0.0,M,,*61
$GPGSA,A,3,01,02,03,04,05,06,07,08,09,10,11,12,1.0,1.0,1.0*30
$GPRMC,050737.004,A,5952.057,N,01039.294,E,038.9,241.4,090920,000.0,W*76
$GPGGA,050738.004,5952.049,N,01039.279,E,1,12,1.0,0.0,M,0.0,M,,*62
$GPGSA,A,3,01,02,03,04,05,06,07,08,09,10,11,12,1.0,1.0,1.0*30
$GPRMC,050738.004,A,5952.049,N,01039.279,E,038.9,241.4,090920,000.0,W*75
$GPGGA,050739.004,5952.041,N,01039.265,E,1,12,1.0,0.0,M,0.0,M,,*66
$GPGSA,A,3,01,02,03,04,05,06,07,08,09,10,11,12,1.0,1.0,1.0*30
$GPRMC,050739.004,A,5952.041,N,01039.265,E,038.9,241.4,090920,000.0,W*71
$GPGGA,050740.004,5952.033,N,01039.250,E,1,12,1.0,0.0,M,0.0,M,,*6B
$GPGSA,A,3,01,02,03,04,05,06,07,08,09,10,11,12,1.0,1.0,1.0*30
$GPRMC,050740.004,A,5952.033,N,01039.250,E,038.9,241.4,090920,000.0,W*7C
$GPGGA,050741.004,5952.025,N,01039.236,E,1,12,1.0,0.0,M,0.0,M,,*6D
$GPGSA,A,3,01,02,03,04,05,06,07,08,09,10,11,12,1.0,1.0,1.0*30
$GPRMC,050741.004,A,5952.025,N,01039.236,E,038.9,241.4,090920,000.0,W*7A
$GPGGA,050742.004,5952.018,N,01039.221,E,1,12,1.0,0.0,M,0.0,M,,*66
$GPGSA,A,3,01,02,03,04,05,06,07,08,09,10,11,12,1.0,1.0,1.0*30
$GPRMC,050742.004,A,5952.018,N,01039.221,E,038.9,241.4,090920,000.0,W*71
$GPGGA,050743.004,5952.010,N,01039.206,E,1,12,1.0,0.0,M,0.0,M,,*6A
$GPGSA,A,3,01,02,03,04,05,06,07,08,09,10,11,12,1.0,1.0,1.0*30
$GPRMC,050743.004,A,5952.010,N,01039.206,E,038.9,241.4,090920,000.0,W*7D
$GPGGA,050744.004,5952.002,N,01039.192,E,1,12,1.0,0.0,M,0.0,M,,*60
$GPGSA,A,3,01,02,03,04,05,06,07,08,09,10,11,12,1.0,1.0,1.0*30
$GPRMC,050744.004,A,5952.002,N,01039.192,E,038.9,241.4,090920,000.0,W*77
$GPGGA,050745.004,5951.994,N,01039.177,E,1,12,1.0,0.0,M,0.0,M,,*6F
$GPGSA,A,3,01,02,03,04,05,06,07,08,09,10,11,12,1.0,1.0,1.0*30
$GPRMC,050745.004,A,5951.994,N,01039.177,E,038.9,241.4,090920,000.0,W*78
$GPGGA,050746.004,5951.986,N,01039.163,E,1,12,1.0,0.0,M,0.0,M,,*6A
$GPGSA,A,3,01,02,03,04,05,06,07,08,09,10,11,12,1.0,1.0,1.0*30
$GPRMC,050746.004,A,5951.986,N,01039.163,E,038.9,241.4,090920,000.0,W*7D
$GPGGA,050747.004,5951.978,N,01039.148,E,1,12,1.0,0.0,M,0.0,M,,*63
$GPGSA,A,3,01,02,03,04,05,06,07,08,09,10,11,12,1.0,1.0,1.0*30
$GPRMC,050747.004,A,5951.978,N,01039.148,E,038.9,241.4,090920,000.0,W*74
$GPGGA,050748.004,5951.970,N,01039.133,E,1,12,1.0,0.0,M,0.0,M,,*68
$GPGSA,A,3,01,02,03,04,05,06,07,08,09,10,11,12,1.0,1.0,1.0*30
$GPRMC,050748.004,A,5951.970,N,01039.133,E,038.9,241.4,090920,000.0,W*7F
$GPGGA,050749.004,5951.962,N,01039.119,E,1,12,1.0,0.0,M,0.0,M,,*62
$GPGSA,A,3,01,02,03,04,05,06,07,08,09,10,11,12,1.0,1.0,1.0*30
$GPRMC,050749.004,A,5951.962,N,01039.119,E,038.9,241.4,090920,000.0,W*75
$GPGGA,050750.004,5951.954,N,01039.104,E,1,12,1.0,0.0,M,0.0,M,,*63
$GPGSA,A,3,01,02,03,04,05,06,07,08,09,10,11,12,1.0,1.0,1.0*30
$GPRMC,050750.004,A,5951.954,N,01039.104,E,038.9,241.4,090920,000.0,W*74
$GPGGA,050751.004,5951.946,N,01039.090,E,1,12,1.0,0.0,M,0.0,M,,*6D
$GPGSA,A,3,01,02,03,04,05,06,07,08,09,10,11,12,1.0,1.0,1.0*30
$GPRMC,050751.004,A,5951.946,N,01039.090,E,038.9,241.4,090920,000.0,W*7A
$GPGGA,050752.004,5951.938,N,01039.075,E,1,12,1.0,0.0,M,0.0,M,,*6C
$GPGSA,A,3,01,02,03,04,05,06,07,08,09,10,11,12,1.0,1.0,1.0*30
$GPRMC,050752.004,A,5951.938,N,01039.075,E,038.9,241.4,090920,000.0,W*7B
$GPGGA,050753.004,5951.930,N,01039.061,E,1,12,1.0,0.0,M,0.0,M,,*60
$GPGSA,A,3,01,02,03,04,05,06,07,08,09,10,11,12,1.0,1.0,1.0*30
$GPRMC,050753.004,A,5951.930,N,01039.061,E,038.9,241.4,090920,000.0,W*77
$GPGGA,050754.004,5951.922,N,01039.046,E,1,12,1.0,0.0,M,0.0,M,,*61
$GPGSA,A,3,01,02,03,04,05,06,07,08,09,10,11,12,1.0,1.0,1.0*30
$GPRMC,050754.004,A,5951.922,N,01039.046,E,038.9,241.4,090920,000.0,W*76
$GPGGA,050755.004,5951.915,N,01039.031,E,1,12,1.0,0.0,M,0.0,M,,*64
$GPGSA,A,3,01,02,03,04,05,06,07,08,09,10,11,12,1.0,1.0,1.0*30
$GPRMC,050755.004,A,5951.915,N,01039.031,E,038.9,241.4,090920,000.0,W*73
$GPGGA,050756.004,5951.907,N,01039.017,E,1,12,1.0,0.0,M,0.0,M,,*60
$GPGSA,A,3,01,02,03,04,05,06,07,08,09,10,11,12,1.0,1.0,1.0*30
$GPRMC,050756.004,A,5951.907,N,01039.017,E,038.9,241.4,090920,000.0,W*77
$GPGGA,050757.004,5951.899,N,01039.002,E,1,12,1.0,0.0,M,0.0,M,,*63
$GPGSA,A,3,01,02,03,04,05,06,07,08,09,10,11,12,1.0,1.0,1.0*30
$GPRMC,050757.004,A,5951.899,N,01039.002,E,038.9,241.4,090920,000.0,W*74
$GPGGA,050758.004,5951.891,N,01038.988,E,1,12,1.0,0.0,M,0.0,M,,*6E
$GPGSA,A,3,01,02,03,04,05,06,07,08,09,10,11,12,1.0,1.0,1.0*30
$GPRMC,050758.004,A,5951.891,N,01038.988,E,038.9,241.4,090920,000.0,W*79
$GPGGA,050759.004,5951.883,N,01038.973,E,1,12,1.0,0.0,M,0.0,M,,*68
$GPGSA,A,3,01,02,03,04,05,06,07,08,09,10,11,12,1.0,1.0,1.0*30
$GPRMC,050759.004,A,5951.883,N,01038.973,E,038.9,241.4,090920,000.0,W*7F
$GPGGA,050800.004,5951.875,N,01038.958,E,1,12,1.0,0.0,M,0.0,M,,*6B
$GPGSA,A,3,01,02,03,04,05,06,07,08,09,10,11,12,1.0,1.0,1.0*30
$GPRMC,050800.004,A,5951.875,N,01038.958,E,038.9,241.4,090920,000.0,W*7C
$GPGGA,050801.004,5951.867,N,01038.944,E,1,12,1.0,0.0,M,0.0,M,,*64
$GPGSA,A,3,01,02,03,04,05,06,07,08,09,10,11,12,1.0,1.0,1.0*30
$GPRMC,050801.004,A,5951.867,N,01038.944,E,038.9,241.4,090920,000.0,W*73
$GPGGA,050802.004,5951.859,N,01038.929,E,1,12,1.0,0.0,M,0.0,M,,*61
$GPGSA,A,3,01,02,03,04,05,06,07,08,09,10,11,12,1.0,1.0,1.0*30
$GPRMC,050802.004,A,5951.859,N,01038.929,E,038.9,241.4,090920,000.0,W*76
$GPGGA,050803.004,5951.851,N,01038.915,E,1,12,1.0,0.0,M,0.0,M,,*67
$GPGSA,A,3,01,02,03,04,05,06,07,08,09,10,11,12,1.0,1.0,1.0*30
$GPRMC,050803.004,A,5951.851,N,01038.915,E,038.9,241.4,090920,000.0,W*70
$GPGGA,050804.004,5951.843,N,01038.900,E,1,12,1.0,0.0,M,0.0,M,,*67
$GPGSA,A,3,01,02,03,04,05,06,07,08,09,10,11,12,1.0,1.0,1.0*30
$GPRMC,050804.004,A,5951.843,N,01038.900,E,038.9,241.4,090920,000.0,W*70
$GPGGA,050805.004,5951.835,N,01038.885,E,1,12,1.0,0.0,M,0.0,M,,*6B
$GPGSA,A,3,01,02,03,04,05,06,07,08,09,10,11,12,1.0,1.0,1.0*30
$GPRMC,050805.004,A,5951.835,N,01038.885,E,038.9,241.4,090920,000.0,W*7C
$GPGGA,050806.004,5951.827,N,01038.871,E,1,12,1.0,0.0,M,0.0,M,,*60
$GPGSA,A,3,01,02,03,04,05,06,07,08,09,10,11,12,1.0,1.0,1.0*30
$GPRMC,050806.004,A,5951.827,N,01038.871,E,038.9,241.4,090920,000.0,W*77
$GPGGA,050807.004,5951.819,N,01038.856,E,1,12,1.0,0.0,M,0.0,M,,*69
$GPGSA,A,3,01,02,03,04,05,06,07,08,09,10,11,12,1.0,1.0,1.0*30
$GPRMC,050807.004,A,5951.819,N,01038.856,E,038.9,241.4,090920,000.0,W*7E
$GPGGA,050808.004,5951.812,N,01038.842,E,1,12,1.0,0.0,M,0.0,M,,*68
$GPGSA,A,3,01,02,03,04,05,06,07,08,09,10,11,12,1.0,1.0,1.0*30
$GPRMC,050808.004,A,5951.812,N,01038.842,E,038.9,241.4,090920,000.0,W*7F
$GPGGA,050809.004,5951.804,N,01038.827,E,1,12,1.0,0.0,M,0.0,M,,*6D
$GPGSA,A,3,01,02,03,04,05,06,07,08,09,10,11,12,1.0,1.0,1.0*30
$GPRMC,050809.004,A,5951.804,N,01038.827,E,038.9,241.4,090920,000.0,W*7A
$GPGGA,050810.004,5951.796,N,01038.812,E,1,12,1.0,0.0,M,0.0,M,,*67
$GPGSA,A,3,01,02,03,04,05,06,07,08,09,10,11,12,1.0,1.0,1.0*30
$GPRMC,050810.004,A,5951.796,N,01038.812,E,038.9,241.4,090920,000.0,W*70
$GPGGA,050811.004,5951.788,N,01038.798,E,1,12,1.0,0.0,M,0.0,M,,*64
$GPGSA,A,3,01,02,03,04,05,06,07,08,09,10,11,12,1.0,1.0,1.0*30
$GPRMC,050811.004,A,5951.788,N,01038.798,E,038.9,241.4,090920,000.0,W*73
$GPGGA,050812.004,5951.780,N,01038.783,E,1,12,1.0,0.0,M,0.0,M,,*65
$GPGSA,A,3,01,02,03,04,05,06,07,08,09,10,11,12,1.0,1.0,1.0*30
$GPRMC,050812.004,A,5951.780,N,01038.783,E,038.9,241.4,090920,000.0,W*72
$GPGGA,050813.004,5951.772,N,01038.769,E,1,12,1.0,0.0,M,0.0,M,,*6D
$GPGSA,A,3,01,02,03,04,05,06,07,08,09,10,11,12,1.0,1.0,1.0*30
$GPRMC,050813.004,A,5951.772,N,01038.769,E,038.9,241.4,090920,000.0,W*7A
$GPGGA,050814.004,5951.764,N,01038.754,E,1,12,1.0,0.0,M,0.0,M,,*63
$GPGSA,A,3,01,02,03,04,05,06,07,08,09,10,11,12,1.0,1.0,1.0*30
$GPRMC,050814.004,A,5951.764,N,01038.754,E,038.9,241.4,090920,000.0,W*74
